data = [
{"tag_number_masked":"***44862","field2":"43460","Day of Week":"Wednesday","infraction_code":"336","infraction_description":"PARK-FAIL TO DISPLAY PERMIT","Payment Related?":"FTP","set_fine_amount":"30","time_of_infraction":"627","location1":"NR","location2":"188 WILTSHIRE AVE","location3":"","location4":"","province":"ON","Latitude":"29.475737","Longitude":"-98.4586048"},
{"tag_number_masked":"***59961","field2":"43460","Day of Week":"Wednesday","infraction_code":"336","infraction_description":"PARK-FAIL TO DISPLAY PERMIT","Payment Related?":"FTP","set_fine_amount":"30","time_of_infraction":"647","location1":"NR","location2":"571 DOVERCOURT RD","location3":"","location4":"","province":"ON","Latitude":"43.6575297","Longitude":"-79.4276502"},
{"tag_number_masked":"***19513","field2":"43460","Day of Week":"Wednesday","infraction_code":"336","infraction_description":"PARK-FAIL TO DISPLAY PERMIT","Payment Related?":"FTP","set_fine_amount":"30","time_of_infraction":"651","location1":"NR","location2":"238 CRANBROOKE AVE","location3":"","location4":"","province":"ON","Latitude":"43.7275609","Longitude":"-79.4118898"},
{"tag_number_masked":"***19514","field2":"43460","Day of Week":"Wednesday","infraction_code":"336","infraction_description":"PARK-FAIL TO DISPLAY PERMIT","Payment Related?":"FTP","set_fine_amount":"30","time_of_infraction":"653","location1":"NR","location2":"174 CRANBROOKE AVE","location3":"","location4":"","province":"ON","Latitude":"43.7281428","Longitude":"-79.4092618"},
{"tag_number_masked":"***82042","field2":"43460","Day of Week":"Wednesday","infraction_code":"336","infraction_description":"PARK-FAIL TO DISPLAY PERMIT","Payment Related?":"FTP","set_fine_amount":"30","time_of_infraction":"657","location1":"NR","location2":"91 WHISTLE POST ST","location3":"","location4":"","province":"ON","Latitude":"43.6867923","Longitude":"-79.2946264"},
{"tag_number_masked":"***82047","field2":"43460","Day of Week":"Wednesday","infraction_code":"336","infraction_description":"PARK-FAIL TO DISPLAY PERMIT","Payment Related?":"FTP","set_fine_amount":"30","time_of_infraction":"809","location1":"NR","location2":"15 UNITY RD","location3":"","location4":"","province":"ON","Latitude":"40.7382125","Longitude":"-74.2307832"},
{"tag_number_masked":"***36925","field2":"43460","Day of Week":"Wednesday","infraction_code":"312","infraction_description":"PARKING MACH-NOT USED/NO FEE","Payment Related?":"FTP","set_fine_amount":"30","time_of_infraction":"1205","location1":"","location2":"351 KEELE ST","location3":"","location4":"","province":"ON","Latitude":"43.6647984","Longitude":"-79.4639647"},
{"tag_number_masked":"***36926","field2":"43460","Day of Week":"Wednesday","infraction_code":"312","infraction_description":"PARKING MACH-NOT USED/NO FEE","Payment Related?":"FTP","set_fine_amount":"30","time_of_infraction":"1209","location1":"","location2":"351 KEELE ST","location3":"","location4":"","province":"ON","Latitude":"43.6647984","Longitude":"-79.4639647"},
{"tag_number_masked":"***36927","field2":"43460","Day of Week":"Wednesday","infraction_code":"312","infraction_description":"PARKING MACH-NOT USED/NO FEE","Payment Related?":"FTP","set_fine_amount":"30","time_of_infraction":"1221","location1":"","location2":"385 PACIFIC AVE","location3":"","location4":"","province":"ON","Latitude":"38.2686278","Longitude":"-122.036951"},
{"tag_number_masked":"***36928","field2":"43460","Day of Week":"Wednesday","infraction_code":"312","infraction_description":"PARKING MACH-NOT USED/NO FEE","Payment Related?":"FTP","set_fine_amount":"30","time_of_infraction":"1224","location1":"","location2":"385 PACIFIC AVE","location3":"","location4":"","province":"ON","Latitude":"38.2686278","Longitude":"-122.036951"},
{"tag_number_masked":"***36989","field2":"43460","Day of Week":"Wednesday","infraction_code":"312","infraction_description":"PARKING MACH-NOT USED/NO FEE","Payment Related?":"FTP","set_fine_amount":"30","time_of_infraction":"1234","location1":"","location2":"35 ERINDALE AVE","location3":"","location4":"","province":"ON","Latitude":"43.6772938","Longitude":"-79.3574149"},
{"tag_number_masked":"***36929","field2":"43460","Day of Week":"Wednesday","infraction_code":"312","infraction_description":"PARKING MACH-NOT USED/NO FEE","Payment Related?":"FTP","set_fine_amount":"30","time_of_infraction":"1241","location1":"","location2":"255 KENNEDY AVE","location3":"","location4":"","province":"ON","Latitude":"42.62433","Longitude":"-79.089519"},
{"tag_number_masked":"***36930","field2":"43460","Day of Week":"Wednesday","infraction_code":"314","infraction_description":"PARK - NOT WITHIN PERIOD","Payment Related?":"FTP","set_fine_amount":"30","time_of_infraction":"1245","location1":"","location2":"255 KENNEDY AVE","location3":"","location4":"","province":"ON","Latitude":"42.62433","Longitude":"-79.089519"},
{"tag_number_masked":"***36931","field2":"43460","Day of Week":"Wednesday","infraction_code":"312","infraction_description":"PARKING MACH-NOT USED/NO FEE","Payment Related?":"FTP","set_fine_amount":"30","time_of_infraction":"1251","location1":"","location2":"255 KENNEDY AVE","location3":"","location4":"","province":"ON","Latitude":"42.62433","Longitude":"-79.089519"},
{"tag_number_masked":"***36932","field2":"43460","Day of Week":"Wednesday","infraction_code":"312","infraction_description":"PARKING MACH-NOT USED/NO FEE","Payment Related?":"FTP","set_fine_amount":"30","time_of_infraction":"1301","location1":"","location2":"265 DURIE ST","location3":"","location4":"","province":"ON","Latitude":"43.6514448","Longitude":"-79.4794043"},
{"tag_number_masked":"***36933","field2":"43460","Day of Week":"Wednesday","infraction_code":"312","infraction_description":"PARKING MACH-NOT USED/NO FEE","Payment Related?":"FTP","set_fine_amount":"30","time_of_infraction":"1305","location1":"","location2":"265 DURIE STREET","location3":"","location4":"","province":"ON","Latitude":"43.6514448","Longitude":"-79.4794043"},
{"tag_number_masked":"***36934","field2":"43460","Day of Week":"Wednesday","infraction_code":"312","infraction_description":"PARKING MACH-NOT USED/NO FEE","Payment Related?":"FTP","set_fine_amount":"30","time_of_infraction":"1315","location1":"","location2":"265 DURIE ST","location3":"","location4":"","province":"ON","Latitude":"43.6514448","Longitude":"-79.4794043"},
{"tag_number_masked":"***36935","field2":"43460","Day of Week":"Wednesday","infraction_code":"312","infraction_description":"PARKING MACH-NOT USED/NO FEE","Payment Related?":"FTP","set_fine_amount":"30","time_of_infraction":"1330","location1":"","location2":"265 WILLARD AVE","location3":"","location4":"","province":"ON","Latitude":"41.7118072","Longitude":"-72.7368625"},
{"tag_number_masked":"***36936","field2":"43460","Day of Week":"Wednesday","infraction_code":"312","infraction_description":"PARKING MACH-NOT USED/NO FEE","Payment Related?":"FTP","set_fine_amount":"30","time_of_infraction":"1336","location1":"","location2":"265 WILLARD AVE","location3":"","location4":"","province":"ON","Latitude":"41.7118072","Longitude":"-72.7368625"},
{"tag_number_masked":"***36990","field2":"43460","Day of Week":"Wednesday","infraction_code":"312","infraction_description":"PARKING MACH-NOT USED/NO FEE","Payment Related?":"FTP","set_fine_amount":"30","time_of_infraction":"1349","location1":"","location2":"18 FERRIER AVE","location3":"","location4":"","province":"ON","Latitude":"41.7635559","Longitude":"-71.298494"},
{"tag_number_masked":"***36991","field2":"43460","Day of Week":"Wednesday","infraction_code":"312","infraction_description":"PARKING MACH-NOT USED/NO FEE","Payment Related?":"FTP","set_fine_amount":"30","time_of_infraction":"1351","location1":"","location2":"18 FERRIER AVE","location3":"","location4":"","province":"ON","Latitude":"41.7635559","Longitude":"-71.298494"},
{"tag_number_masked":"***36937","field2":"43460","Day of Week":"Wednesday","infraction_code":"312","infraction_description":"PARKING MACH-NOT USED/NO FEE","Payment Related?":"FTP","set_fine_amount":"30","time_of_infraction":"1410","location1":"","location2":"9 BONAR PLACE","location3":"","location4":"","province":"ON","Latitude":"43.6527778","Longitude":"-79.4338219"},
{"tag_number_masked":"***36938","field2":"43460","Day of Week":"Wednesday","infraction_code":"312","infraction_description":"PARKING MACH-NOT USED/NO FEE","Payment Related?":"FTP","set_fine_amount":"30","time_of_infraction":"1413","location1":"","location2":"9 BONAR PLACE","location3":"","location4":"","province":"ON","Latitude":"43.6527778","Longitude":"-79.4338219"},
{"tag_number_masked":"***36940","field2":"43460","Day of Week":"Wednesday","infraction_code":"312","infraction_description":"PARKING MACH-NOT USED/NO FEE","Payment Related?":"FTP","set_fine_amount":"30","time_of_infraction":"1415","location1":"","location2":"9 BONAR PLACE","location3":"","location4":"","province":"ON","Latitude":"43.6527778","Longitude":"-79.4338219"},
{"tag_number_masked":"***36939","field2":"43460","Day of Week":"Wednesday","infraction_code":"312","infraction_description":"PARKING MACH-NOT USED/NO FEE","Payment Related?":"FTP","set_fine_amount":"30","time_of_infraction":"1416","location1":"","location2":"9 BONAR PLACE","location3":"","location4":"","province":"ON","Latitude":"43.6527778","Longitude":"-79.4338219"},
{"tag_number_masked":"***36941","field2":"43460","Day of Week":"Wednesday","infraction_code":"312","infraction_description":"PARKING MACH-NOT USED/NO FEE","Payment Related?":"FTP","set_fine_amount":"30","time_of_infraction":"1421","location1":"","location2":"9 BONAR PLACE","location3":"","location4":"","province":"ON","Latitude":"43.6527778","Longitude":"-79.4338219"},
{"tag_number_masked":"***36992","field2":"43460","Day of Week":"Wednesday","infraction_code":"312","infraction_description":"PARKING MACH-NOT USED/NO FEE","Payment Related?":"FTP","set_fine_amount":"30","time_of_infraction":"1453","location1":"","location2":"610 PAPE AVE","location3":"","location4":"","province":"ON","Latitude":"43.6759517","Longitude":"-79.3438824"},
{"tag_number_masked":"***36942","field2":"43460","Day of Week":"Wednesday","infraction_code":"312","infraction_description":"PARKING MACH-NOT USED/NO FEE","Payment Related?":"FTP","set_fine_amount":"30","time_of_infraction":"1454","location1":"","location2":"201 CLAREMONT ST","location3":"","location4":"","province":"ON","Latitude":"43.6517786","Longitude":"-79.4114623"},
{"tag_number_masked":"***36993","field2":"43460","Day of Week":"Wednesday","infraction_code":"312","infraction_description":"PARKING MACH-NOT USED/NO FEE","Payment Related?":"FTP","set_fine_amount":"30","time_of_infraction":"1456","location1":"","location2":"670 PAPE AVE","location3":"","location4":"","province":"ON","Latitude":"43.6782617","Longitude":"-79.3449055"},
{"tag_number_masked":"***36943","field2":"43460","Day of Week":"Wednesday","infraction_code":"312","infraction_description":"PARKING MACH-NOT USED/NO FEE","Payment Related?":"FTP","set_fine_amount":"30","time_of_infraction":"1458","location1":"","location2":"201 CLAREMONT ST","location3":"","location4":"","province":"ON","Latitude":"43.6517786","Longitude":"-79.4114623"},
{"tag_number_masked":"***36944","field2":"43460","Day of Week":"Wednesday","infraction_code":"312","infraction_description":"PARKING MACH-NOT USED/NO FEE","Payment Related?":"FTP","set_fine_amount":"30","time_of_infraction":"1458","location1":"","location2":"201 CLAREMONT ST","location3":"","location4":"","province":"ON","Latitude":"43.6517786","Longitude":"-79.4114623"},
{"tag_number_masked":"***36994","field2":"43460","Day of Week":"Wednesday","infraction_code":"312","infraction_description":"PARKING MACH-NOT USED/NO FEE","Payment Related?":"FTP","set_fine_amount":"30","time_of_infraction":"1459","location1":"","location2":"670 PAPE AVE","location3":"","location4":"","province":"ON","Latitude":"43.6782617","Longitude":"-79.3449055"},
{"tag_number_masked":"***36995","field2":"43460","Day of Week":"Wednesday","infraction_code":"312","infraction_description":"PARKING MACH-NOT USED/NO FEE","Payment Related?":"FTP","set_fine_amount":"30","time_of_infraction":"1502","location1":"","location2":"670 PAPE AVE","location3":"","location4":"","province":"ON","Latitude":"43.6782617","Longitude":"-79.3449055"},
{"tag_number_masked":"***36945","field2":"43460","Day of Week":"Wednesday","infraction_code":"312","infraction_description":"PARKING MACH-NOT USED/NO FEE","Payment Related?":"FTP","set_fine_amount":"30","time_of_infraction":"1505","location1":"","location2":"201 CLAREMONT ST","location3":"","location4":"","province":"ON","Latitude":"43.6517786","Longitude":"-79.4114623"},
{"tag_number_masked":"***36946","field2":"43460","Day of Week":"Wednesday","infraction_code":"312","infraction_description":"PARKING MACH-NOT USED/NO FEE","Payment Related?":"FTP","set_fine_amount":"30","time_of_infraction":"1510","location1":"","location2":"201 CLAREMONT ST","location3":"","location4":"","province":"ON","Latitude":"43.6517786","Longitude":"-79.4114623"},
{"tag_number_masked":"***36947","field2":"43460","Day of Week":"Wednesday","infraction_code":"312","infraction_description":"PARKING MACH-NOT USED/NO FEE","Payment Related?":"FTP","set_fine_amount":"30","time_of_infraction":"1515","location1":"","location2":"201 CLAREMONT ST","location3":"","location4":"","province":"ON","Latitude":"43.6517786","Longitude":"-79.4114623"},
{"tag_number_masked":"***36996","field2":"43460","Day of Week":"Wednesday","infraction_code":"312","infraction_description":"PARKING MACH-NOT USED/NO FEE","Payment Related?":"FTP","set_fine_amount":"30","time_of_infraction":"1520","location1":"","location2":"17 EATON AVE","location3":"","location4":"","province":"ON","Latitude":"40.3913234","Longitude":"-74.3975758"},
{"tag_number_masked":"***36948","field2":"43460","Day of Week":"Wednesday","infraction_code":"312","infraction_description":"PARKING MACH-NOT USED/NO FEE","Payment Related?":"FTP","set_fine_amount":"30","time_of_infraction":"1527","location1":"","location2":"74 CLINTON ST","location3":"","location4":"","province":"ON","Latitude":"40.7189716","Longitude":"-73.984962"},
{"tag_number_masked":"***36949","field2":"43460","Day of Week":"Wednesday","infraction_code":"312","infraction_description":"PARKING MACH-NOT USED/NO FEE","Payment Related?":"FTP","set_fine_amount":"30","time_of_infraction":"1530","location1":"","location2":"74 CLINTON ST","location3":"","location4":"","province":"ON","Latitude":"40.7189716","Longitude":"-73.984962"},
{"tag_number_masked":"***36950","field2":"43460","Day of Week":"Wednesday","infraction_code":"312","infraction_description":"PARKING MACH-NOT USED/NO FEE","Payment Related?":"FTP","set_fine_amount":"30","time_of_infraction":"1601","location1":"","location2":"35 BELLEVUE AVE","location3":"","location4":"","province":"ON","Latitude":"37.8727891","Longitude":"-122.4592189"},
{"tag_number_masked":"***36951","field2":"43460","Day of Week":"Wednesday","infraction_code":"312","infraction_description":"PARKING MACH-NOT USED/NO FEE","Payment Related?":"FTP","set_fine_amount":"30","time_of_infraction":"1604","location1":"","location2":"35 BELLEVUE AVE","location3":"","location4":"","province":"ON","Latitude":"37.8727891","Longitude":"-122.4592189"},
{"tag_number_masked":"***36952","field2":"43460","Day of Week":"Wednesday","infraction_code":"312","infraction_description":"PARKING MACH-NOT USED/NO FEE","Payment Related?":"FTP","set_fine_amount":"30","time_of_infraction":"1607","location1":"","location2":"35 BELLEVUE AVE","location3":"","location4":"","province":"ON","Latitude":"37.8727891","Longitude":"-122.4592189"},
{"tag_number_masked":"***36953","field2":"43460","Day of Week":"Wednesday","infraction_code":"312","infraction_description":"PARKING MACH-NOT USED/NO FEE","Payment Related?":"FTP","set_fine_amount":"30","time_of_infraction":"1611","location1":"","location2":"35 BELLEVUE AVE","location3":"","location4":"","province":"ON","Latitude":"37.8727891","Longitude":"-122.4592189"},
{"tag_number_masked":"***36954","field2":"43460","Day of Week":"Wednesday","infraction_code":"312","infraction_description":"PARKING MACH-NOT USED/NO FEE","Payment Related?":"FTP","set_fine_amount":"30","time_of_infraction":"1614","location1":"","location2":"35 BELLEVUE AVE","location3":"","location4":"","province":"ON","Latitude":"37.8727891","Longitude":"-122.4592189"},
{"tag_number_masked":"***36955","field2":"43460","Day of Week":"Wednesday","infraction_code":"312","infraction_description":"PARKING MACH-NOT USED/NO FEE","Payment Related?":"FTP","set_fine_amount":"30","time_of_infraction":"1617","location1":"","location2":"35 BELLEVUE AVE","location3":"","location4":"","province":"ON","Latitude":"37.8727891","Longitude":"-122.4592189"},
{"tag_number_masked":"***36956","field2":"43460","Day of Week":"Wednesday","infraction_code":"312","infraction_description":"PARKING MACH-NOT USED/NO FEE","Payment Related?":"FTP","set_fine_amount":"30","time_of_infraction":"1640","location1":"","location2":"45 ABELL ST","location3":"","location4":"","province":"ON","Latitude":"43.6420336","Longitude":"-79.4237432"},
{"tag_number_masked":"***36957","field2":"43460","Day of Week":"Wednesday","infraction_code":"312","infraction_description":"PARKING MACH-NOT USED/NO FEE","Payment Related?":"FTP","set_fine_amount":"30","time_of_infraction":"1644","location1":"","location2":"45 ABELL ST","location3":"","location4":"","province":"ON","Latitude":"43.6420336","Longitude":"-79.4237432"},
{"tag_number_masked":"***36958","field2":"43460","Day of Week":"Wednesday","infraction_code":"312","infraction_description":"PARKING MACH-NOT USED/NO FEE","Payment Related?":"FTP","set_fine_amount":"30","time_of_infraction":"1648","location1":"","location2":"45 ABELL ST","location3":"","location4":"","province":"ON","Latitude":"43.6420336","Longitude":"-79.4237432"},
{"tag_number_masked":"***36959","field2":"43460","Day of Week":"Wednesday","infraction_code":"312","infraction_description":"PARKING MACH-NOT USED/NO FEE","Payment Related?":"FTP","set_fine_amount":"30","time_of_infraction":"1651","location1":"","location2":"45 ABELL ST","location3":"","location4":"","province":"ON","Latitude":"43.6420336","Longitude":"-79.4237432"},
{"tag_number_masked":"***36997","field2":"43460","Day of Week":"Wednesday","infraction_code":"312","infraction_description":"PARKING MACH-NOT USED/NO FEE","Payment Related?":"FTP","set_fine_amount":"30","time_of_infraction":"1711","location1":"","location2":"117 HAMMERSMITH AVE","location3":"","location4":"","province":"ON","Latitude":"43.6717072","Longitude":"-79.2943575"},
{"tag_number_masked":"***36998","field2":"43460","Day of Week":"Wednesday","infraction_code":"312","infraction_description":"PARKING MACH-NOT USED/NO FEE","Payment Related?":"FTP","set_fine_amount":"30","time_of_infraction":"1714","location1":"","location2":"117 HAMMERSMITH AVE","location3":"","location4":"","province":"ON","Latitude":"43.6717072","Longitude":"-79.2943575"},
{"tag_number_masked":"***36999","field2":"43460","Day of Week":"Wednesday","infraction_code":"312","infraction_description":"PARKING MACH-NOT USED/NO FEE","Payment Related?":"FTP","set_fine_amount":"30","time_of_infraction":"1719","location1":"","location2":"117 HAMMERSMITH AVE","location3":"","location4":"","province":"ON","Latitude":"43.6717072","Longitude":"-79.2943575"},
{"tag_number_masked":"***36960","field2":"43460","Day of Week":"Wednesday","infraction_code":"314","infraction_description":"PARK - NOT WITHIN PERIOD","Payment Related?":"FTP","set_fine_amount":"30","time_of_infraction":"1720","location1":"","location2":"1030 KING ST W","location3":"","location4":"","province":"ON","Latitude":"43.641579","Longitude":"-79.4159028"},
{"tag_number_masked":"***36961","field2":"43460","Day of Week":"Wednesday","infraction_code":"314","infraction_description":"PARK - NOT WITHIN PERIOD","Payment Related?":"FTP","set_fine_amount":"30","time_of_infraction":"1723","location1":"","location2":"1030 KING ST W","location3":"","location4":"","province":"ON","Latitude":"43.641579","Longitude":"-79.4159028"},
{"tag_number_masked":"***36962","field2":"43460","Day of Week":"Wednesday","infraction_code":"312","infraction_description":"PARKING MACH-NOT USED/NO FEE","Payment Related?":"FTP","set_fine_amount":"30","time_of_infraction":"1727","location1":"","location2":"1030 KING ST W","location3":"","location4":"","province":"ON","Latitude":"43.641579","Longitude":"-79.4159028"},
{"tag_number_masked":"***36963","field2":"43460","Day of Week":"Wednesday","infraction_code":"312","infraction_description":"PARKING MACH-NOT USED/NO FEE","Payment Related?":"FTP","set_fine_amount":"30","time_of_infraction":"1730","location1":"","location2":"1030 KING ST W","location3":"","location4":"","province":"ON","Latitude":"43.641579","Longitude":"-79.4159028"},
{"tag_number_masked":"***40062","field2":"43461","Day of Week":"Thursday","infraction_code":"336","infraction_description":"PARK-FAIL TO DISPLAY PERMIT","Payment Related?":"FTP","set_fine_amount":"30","time_of_infraction":"3","location1":"NR","location2":"128 GLENLAKE AVE","location3":"","location4":"","province":"ON","Latitude":"43.6587958","Longitude":"-79.4598513"},
{"tag_number_masked":"***40063","field2":"43461","Day of Week":"Thursday","infraction_code":"336","infraction_description":"PARK-FAIL TO DISPLAY PERMIT","Payment Related?":"FTP","set_fine_amount":"30","time_of_infraction":"4","location1":"NR","location2":"130 GLENLAKE AVE","location3":"","location4":"","province":"ON","Latitude":"41.9911554","Longitude":"-87.8242253"},
{"tag_number_masked":"***60349","field2":"43461","Day of Week":"Thursday","infraction_code":"207","infraction_description":"PARK MACHINE-REQD FEE NOT PAID","Payment Related?":"FTP","set_fine_amount":"30","time_of_infraction":"6","location1":"NR","location2":"7 LEE CENTRE DR","location3":"","location4":"","province":"ON","Latitude":"43.7813116","Longitude":"-79.2461226"},
{"tag_number_masked":"***38049","field2":"43461","Day of Week":"Thursday","infraction_code":"336","infraction_description":"PARK-FAIL TO DISPLAY PERMIT","Payment Related?":"FTP","set_fine_amount":"30","time_of_infraction":"12","location1":"NR","location2":"897 DOVERCOURT RD","location3":"","location4":"","province":"ON","Latitude":"43.6650524","Longitude":"-79.4305474"},
{"tag_number_masked":"***38050","field2":"43461","Day of Week":"Thursday","infraction_code":"336","infraction_description":"PARK-FAIL TO DISPLAY PERMIT","Payment Related?":"FTP","set_fine_amount":"30","time_of_infraction":"13","location1":"NR","location2":"897 DOVERCOURT RD","location3":"","location4":"","province":"ON","Latitude":"43.6650524","Longitude":"-79.4305474"},
{"tag_number_masked":"***40068","field2":"43461","Day of Week":"Thursday","infraction_code":"336","infraction_description":"PARK-FAIL TO DISPLAY PERMIT","Payment Related?":"FTP","set_fine_amount":"30","time_of_infraction":"26","location1":"NR","location2":"63 DORVAL RD","location3":"","location4":"","province":"ON","Latitude":"43.6584676","Longitude":"-79.4551066"},
{"tag_number_masked":"***16392","field2":"43461","Day of Week":"Thursday","infraction_code":"336","infraction_description":"PARK-FAIL TO DISPLAY PERMIT","Payment Related?":"FTP","set_fine_amount":"30","time_of_infraction":"30","location1":"NR","location2":"1 PEEL AVE","location3":"","location4":"","province":"ON","Latitude":"43.6438646","Longitude":"-79.4280815"},
{"tag_number_masked":"***16394","field2":"43461","Day of Week":"Thursday","infraction_code":"336","infraction_description":"PARK-FAIL TO DISPLAY PERMIT","Payment Related?":"FTP","set_fine_amount":"30","time_of_infraction":"35","location1":"NR","location2":"228 GLADSTONE AVE","location3":"","location4":"","province":"ON","Latitude":"45.4139498","Longitude":"-75.6890248"},
{"tag_number_masked":"***34049","field2":"43461","Day of Week":"Thursday","infraction_code":"336","infraction_description":"PARK-FAIL TO DISPLAY PERMIT","Payment Related?":"FTP","set_fine_amount":"30","time_of_infraction":"43","location1":"NR","location2":"341 FORMAN AVE","location3":"","location4":"","province":"ON","Latitude":"43.7088343","Longitude":"-79.3857767"},
{"tag_number_masked":"***35760","field2":"43461","Day of Week":"Thursday","infraction_code":"207","infraction_description":"PARK MACHINE-REQD FEE NOT PAID","Payment Related?":"FTP","set_fine_amount":"30","time_of_infraction":"44","location1":"NR","location2":"2693 BLOOR ST W","location3":"","location4":"","province":"ON","Latitude":"43.6500336","Longitude":"-79.4983074"},
{"tag_number_masked":"***35761","field2":"43461","Day of Week":"Thursday","infraction_code":"207","infraction_description":"PARK MACHINE-REQD FEE NOT PAID","Payment Related?":"FTP","set_fine_amount":"30","time_of_infraction":"50","location1":"NR","location2":"2193 BLOOR ST W","location3":"","location4":"","province":"ON","Latitude":"43.6513956","Longitude":"-79.4750882"},
{"tag_number_masked":"***77112","field2":"43461","Day of Week":"Thursday","infraction_code":"336","infraction_description":"PARK-FAIL TO DISPLAY PERMIT","Payment Related?":"FTP","set_fine_amount":"30","time_of_infraction":"52","location1":"NR","location2":"35 BINGHAM AVE","location3":"","location4":"","province":"ON","Latitude":"40.3756245","Longitude":"-74.0095233"},
{"tag_number_masked":"***38449","field2":"43461","Day of Week":"Thursday","infraction_code":"336","infraction_description":"PARK-FAIL TO DISPLAY PERMIT","Payment Related?":"FTP","set_fine_amount":"30","time_of_infraction":"52","location1":"NR","location2":"112 WELLS ST","location3":"","location4":"","province":"ON","Latitude":"35.310412","Longitude":"-82.4750339"},
{"tag_number_masked":"***35762","field2":"43461","Day of Week":"Thursday","infraction_code":"207","infraction_description":"PARK MACHINE-REQD FEE NOT PAID","Payment Related?":"FTP","set_fine_amount":"30","time_of_infraction":"55","location1":"NR","location2":"2692 BLOOR ST W","location3":"","location4":"","province":"ON","Latitude":"43.6501804","Longitude":"-79.4976105"},
{"tag_number_masked":"***35763","field2":"43461","Day of Week":"Thursday","infraction_code":"207","infraction_description":"PARK MACHINE-REQD FEE NOT PAID","Payment Related?":"FTP","set_fine_amount":"30","time_of_infraction":"57","location1":"NR","location2":"2692 BLOOR ST W","location3":"","location4":"","province":"ON","Latitude":"43.6501804","Longitude":"-79.4976105"},
{"tag_number_masked":"***40082","field2":"43461","Day of Week":"Thursday","infraction_code":"336","infraction_description":"PARK-FAIL TO DISPLAY PERMIT","Payment Related?":"FTP","set_fine_amount":"30","time_of_infraction":"118","location1":"NR","location2":"128 HUMBERSIDE AVE","location3":"","location4":"","province":"ON","Latitude":"43.6622155","Longitude":"-79.4611836"},
{"tag_number_masked":"***40083","field2":"43461","Day of Week":"Thursday","infraction_code":"336","infraction_description":"PARK-FAIL TO DISPLAY PERMIT","Payment Related?":"FTP","set_fine_amount":"30","time_of_infraction":"121","location1":"NR","location2":"56 HUMBERSIDE AVE","location3":"","location4":"","province":"ON","Latitude":"43.662851","Longitude":"-79.4582494"},
{"tag_number_masked":"***34061","field2":"43461","Day of Week":"Thursday","infraction_code":"336","infraction_description":"PARK-FAIL TO DISPLAY PERMIT","Payment Related?":"FTP","set_fine_amount":"30","time_of_infraction":"153","location1":"NR","location2":"142 COLLIER ST","location3":"","location4":"","province":"ON","Latitude":"43.6727528","Longitude":"-79.3839965"},
{"tag_number_masked":"***34062","field2":"43461","Day of Week":"Thursday","infraction_code":"336","infraction_description":"PARK-FAIL TO DISPLAY PERMIT","Payment Related?":"FTP","set_fine_amount":"30","time_of_infraction":"155","location1":"NR","location2":"142 COLLIER ST","location3":"","location4":"","province":"ON","Latitude":"43.6727528","Longitude":"-79.3839965"},
{"tag_number_masked":"***05985","field2":"43461","Day of Week":"Thursday","infraction_code":"336","infraction_description":"PARK-FAIL TO DISPLAY PERMIT","Payment Related?":"FTP","set_fine_amount":"30","time_of_infraction":"209","location1":"NR","location2":"65 PARKWAY AVE","location3":"","location4":"","province":"ON","Latitude":"41.7657469","Longitude":"-71.3938635"},
{"tag_number_masked":"***05986","field2":"43461","Day of Week":"Thursday","infraction_code":"336","infraction_description":"PARK-FAIL TO DISPLAY PERMIT","Payment Related?":"FTP","set_fine_amount":"30","time_of_infraction":"214","location1":"NR","location2":"45 PARKWAY AVE","location3":"","location4":"","province":"ON","Latitude":"40.2362425","Longitude":"-74.7689773"},
{"tag_number_masked":"***34068","field2":"43461","Day of Week":"Thursday","infraction_code":"336","infraction_description":"PARK-FAIL TO DISPLAY PERMIT","Payment Related?":"FTP","set_fine_amount":"30","time_of_infraction":"229","location1":"NR","location2":"48 RATHNELLY AVE","location3":"","location4":"","province":"ON","Latitude":"43.6785418","Longitude":"-79.4012244"},
{"tag_number_masked":"***40105","field2":"43461","Day of Week":"Thursday","infraction_code":"336","infraction_description":"PARK-FAIL TO DISPLAY PERMIT","Payment Related?":"FTP","set_fine_amount":"30","time_of_infraction":"243","location1":"NR","location2":"797 INDIAN RD","location3":"","location4":"","province":"ON","Latitude":"43.6636966","Longitude":"-79.4589956"},
{"tag_number_masked":"***40106","field2":"43461","Day of Week":"Thursday","infraction_code":"336","infraction_description":"PARK-FAIL TO DISPLAY PERMIT","Payment Related?":"FTP","set_fine_amount":"30","time_of_infraction":"244","location1":"NR","location2":"779 INDIAN RD","location3":"","location4":"","province":"ON","Latitude":"43.5450398","Longitude":"-79.609243"},
{"tag_number_masked":"***41413","field2":"43461","Day of Week":"Thursday","infraction_code":"2","infraction_description":"PARK - LONGER THAN 3 HOURS","Payment Related?":"FTP","set_fine_amount":"15","time_of_infraction":"249","location1":"NR","location2":"21 CROSS ST","location3":"","location4":"","province":"ON","Latitude":"42.5122699","Longitude":"-71.1025932"},
{"tag_number_masked":"***78298","field2":"43461","Day of Week":"Thursday","infraction_code":"2","infraction_description":"PARK - LONGER THAN 3 HOURS","Payment Related?":"FTP","set_fine_amount":"15","time_of_infraction":"255","location1":"NR","location2":"12 LINDEN AVE","location3":"","location4":"","province":"ON","Latitude":"42.867686","Longitude":"-76.9834906"},
{"tag_number_masked":"***78299","field2":"43461","Day of Week":"Thursday","infraction_code":"2","infraction_description":"PARK - LONGER THAN 3 HOURS","Payment Related?":"FTP","set_fine_amount":"15","time_of_infraction":"256","location1":"NR","location2":"14b LINDEN AVE","location3":"","location4":"","province":"ON","Latitude":"42.0731015","Longitude":"-87.6814518"},
{"tag_number_masked":"***78300","field2":"43461","Day of Week":"Thursday","infraction_code":"2","infraction_description":"PARK - LONGER THAN 3 HOURS","Payment Related?":"FTP","set_fine_amount":"15","time_of_infraction":"258","location1":"NR","location2":"16 LINDEN AVE","location3":"","location4":"","province":"ON","Latitude":"40.6905578","Longitude":"-73.7277834"},
{"tag_number_masked":"***78445","field2":"43461","Day of Week":"Thursday","infraction_code":"2","infraction_description":"PARK - LONGER THAN 3 HOURS","Payment Related?":"FTP","set_fine_amount":"15","time_of_infraction":"306","location1":"NR","location2":"10 EMPRINGHAM DR","location3":"","location4":"","province":"ON","Latitude":"43.8102934","Longitude":"-79.2100502"},
{"tag_number_masked":"***18505","field2":"43461","Day of Week":"Thursday","infraction_code":"2","infraction_description":"PARK - LONGER THAN 3 HOURS","Payment Related?":"FTP","set_fine_amount":"15","time_of_infraction":"313","location1":"OPP","location2":"7 RUMNEY RD","location3":"","location4":"","province":"ON","Latitude":"42.4198222","Longitude":"-71.0060454"},
{"tag_number_masked":"***18506","field2":"43461","Day of Week":"Thursday","infraction_code":"2","infraction_description":"PARK - LONGER THAN 3 HOURS","Payment Related?":"FTP","set_fine_amount":"15","time_of_infraction":"314","location1":"OPP","location2":"7 RUMNEY RD","location3":"","location4":"","province":"ON","Latitude":"42.4198222","Longitude":"-71.0060454"},
{"tag_number_masked":"***18507","field2":"43461","Day of Week":"Thursday","infraction_code":"2","infraction_description":"PARK - LONGER THAN 3 HOURS","Payment Related?":"FTP","set_fine_amount":"15","time_of_infraction":"315","location1":"OPP","location2":"5 RUMNEY RD","location3":"","location4":"","province":"ON","Latitude":"42.4197914","Longitude":"-71.0059685"},
{"tag_number_masked":"***18508","field2":"43461","Day of Week":"Thursday","infraction_code":"2","infraction_description":"PARK - LONGER THAN 3 HOURS","Payment Related?":"FTP","set_fine_amount":"15","time_of_infraction":"316","location1":"OPP","location2":"3 RUMNEY RD","location3":"","location4":"","province":"ON","Latitude":"43.7967263","Longitude":"-71.7781053"},
{"tag_number_masked":"***18509","field2":"43461","Day of Week":"Thursday","infraction_code":"2","infraction_description":"PARK - LONGER THAN 3 HOURS","Payment Related?":"FTP","set_fine_amount":"15","time_of_infraction":"318","location1":"OPP","location2":"1 RUMNEY RD","location3":"","location4":"","province":"ON","Latitude":"42.4195492","Longitude":"-71.0059475"},
{"tag_number_masked":"***18510","field2":"43461","Day of Week":"Thursday","infraction_code":"2","infraction_description":"PARK - LONGER THAN 3 HOURS","Payment Related?":"FTP","set_fine_amount":"15","time_of_infraction":"319","location1":"OPP","location2":"1 RUMNEY RD","location3":"","location4":"","province":"ON","Latitude":"42.4195492","Longitude":"-71.0059475"},
{"tag_number_masked":"***18511","field2":"43461","Day of Week":"Thursday","infraction_code":"2","infraction_description":"PARK - LONGER THAN 3 HOURS","Payment Related?":"FTP","set_fine_amount":"15","time_of_infraction":"320","location1":"OPP","location2":"1 RUMNEY RD","location3":"","location4":"","province":"ON","Latitude":"42.4195492","Longitude":"-71.0059475"},
{"tag_number_masked":"***22963","field2":"43461","Day of Week":"Thursday","infraction_code":"2","infraction_description":"PARK - LONGER THAN 3 HOURS","Payment Related?":"FTP","set_fine_amount":"15","time_of_infraction":"324","location1":"NR","location2":"15 TRENTON AVE","location3":"","location4":"","province":"ON","Latitude":"40.0906575","Longitude":"-74.0396744"},
{"tag_number_masked":"***78446","field2":"43461","Day of Week":"Thursday","infraction_code":"2","infraction_description":"PARK - LONGER THAN 3 HOURS","Payment Related?":"FTP","set_fine_amount":"15","time_of_infraction":"326","location1":"NR","location2":"12 MARESFIELD DR","location3":"","location4":"","province":"ON","Latitude":"39.8904705","Longitude":"-74.9314883"},
{"tag_number_masked":"***22964","field2":"43461","Day of Week":"Thursday","infraction_code":"2","infraction_description":"PARK - LONGER THAN 3 HOURS","Payment Related?":"FTP","set_fine_amount":"15","time_of_infraction":"326","location1":"NR","location2":"9 TRENTON AVE","location3":"","location4":"","province":"ON","Latitude":"40.525945","Longitude":"-75.0608181"},
{"tag_number_masked":"***78447","field2":"43461","Day of Week":"Thursday","infraction_code":"2","infraction_description":"PARK - LONGER THAN 3 HOURS","Payment Related?":"FTP","set_fine_amount":"15","time_of_infraction":"327","location1":"NR","location2":"12 MARESFIELD DR","location3":"","location4":"","province":"ON","Latitude":"39.8904705","Longitude":"-74.9314883"},
{"tag_number_masked":"***78448","field2":"43461","Day of Week":"Thursday","infraction_code":"2","infraction_description":"PARK - LONGER THAN 3 HOURS","Payment Related?":"FTP","set_fine_amount":"15","time_of_infraction":"330","location1":"NR","location2":"12 MARESFIELD DR","location3":"","location4":"","province":"ON","Latitude":"39.8904705","Longitude":"-74.9314883"},
{"tag_number_masked":"***78449","field2":"43461","Day of Week":"Thursday","infraction_code":"2","infraction_description":"PARK - LONGER THAN 3 HOURS","Payment Related?":"FTP","set_fine_amount":"15","time_of_infraction":"332","location1":"NR","location2":"30 MARESFIELD DR","location3":"","location4":"","province":"ON","Latitude":"43.8195583","Longitude":"-79.2682298"},
{"tag_number_masked":"***78450","field2":"43461","Day of Week":"Thursday","infraction_code":"2","infraction_description":"PARK - LONGER THAN 3 HOURS","Payment Related?":"FTP","set_fine_amount":"15","time_of_infraction":"333","location1":"NR","location2":"30 MARESFIELD DR","location3":"","location4":"","province":"ON","Latitude":"43.8195583","Longitude":"-79.2682298"},
{"tag_number_masked":"***22966","field2":"43461","Day of Week":"Thursday","infraction_code":"336","infraction_description":"PARK-FAIL TO DISPLAY PERMIT","Payment Related?":"FTP","set_fine_amount":"30","time_of_infraction":"342","location1":"NR","location2":"16 ORLEY AVE","location3":"","location4":"","province":"ON","Latitude":"43.6922764","Longitude":"-79.3083858"},
{"tag_number_masked":"***57356","field2":"43461","Day of Week":"Thursday","infraction_code":"336","infraction_description":"PARK-FAIL TO DISPLAY PERMIT","Payment Related?":"FTP","set_fine_amount":"30","time_of_infraction":"636","location1":"S/S","location2":"ROBINSON ST","location3":"E/O","location4":"CLAREMONT ST","province":"ON","Latitude":"42.1078086","Longitude":"-75.8852919"},
{"tag_number_masked":"***51380","field2":"43461","Day of Week":"Thursday","infraction_code":"336","infraction_description":"PARK-FAIL TO DISPLAY PERMIT","Payment Related?":"FTP","set_fine_amount":"30","time_of_infraction":"651","location1":"NR","location2":"71 WHISTLE POST ST","location3":"","location4":"","province":"ON","Latitude":"43.6866519","Longitude":"-79.2954328"},
{"tag_number_masked":"***51645","field2":"43461","Day of Week":"Thursday","infraction_code":"207","infraction_description":"PARK MACHINE-REQD FEE NOT PAID","Payment Related?":"FTP","set_fine_amount":"30","time_of_infraction":"705","location1":"S/S","location2":"BOROUGH DR","location3":"E/O","location4":"BRIAN HARRISON WAY","province":"ON","Latitude":"38.9217847","Longitude":"-104.7061425"},
{"tag_number_masked":"***51646","field2":"43461","Day of Week":"Thursday","infraction_code":"207","infraction_description":"PARK MACHINE-REQD FEE NOT PAID","Payment Related?":"FTP","set_fine_amount":"30","time_of_infraction":"709","location1":"S/S","location2":"BOROUGH DR","location3":"E/O","location4":"TOWN CENTRE CRT","province":"ON","Latitude":"38.9217847","Longitude":"-104.7061425"},
{"tag_number_masked":"***51647","field2":"43461","Day of Week":"Thursday","infraction_code":"207","infraction_description":"PARK MACHINE-REQD FEE NOT PAID","Payment Related?":"FTP","set_fine_amount":"30","time_of_infraction":"713","location1":"S/S","location2":"BOROUGH DR","location3":"E/O","location4":"TOWN CENTRE CRT","province":"ON","Latitude":"38.9217847","Longitude":"-104.7061425"},
{"tag_number_masked":"***72085","field2":"43461","Day of Week":"Thursday","infraction_code":"336","infraction_description":"PARK-FAIL TO DISPLAY PERMIT","Payment Related?":"FTP","set_fine_amount":"30","time_of_infraction":"716","location1":"NR","location2":"74 MITCHELL AVE","location3":"","location4":"","province":"ON","Latitude":"42.0838904","Longitude":"-75.9141826"},
{"tag_number_masked":"***51648","field2":"43461","Day of Week":"Thursday","infraction_code":"207","infraction_description":"PARK MACHINE-REQD FEE NOT PAID","Payment Related?":"FTP","set_fine_amount":"30","time_of_infraction":"725","location1":"W/S","location2":"BRIAN HARRISON WAY","location3":"N/O","location4":"BOROUGH DR","province":"ON","Latitude":"43.7725805","Longitude":"-79.2588873"},
{"tag_number_masked":"***65366","field2":"43461","Day of Week":"Thursday","infraction_code":"207","infraction_description":"PARK MACHINE-REQD FEE NOT PAID","Payment Related?":"FTP","set_fine_amount":"30","time_of_infraction":"803","location1":"OPP","location2":"89 CHESTNUT ST","location3":"","location4":"","province":"ON","Latitude":"43.6540972","Longitude":"-79.3850073"},
{"tag_number_masked":"***69700","field2":"43461","Day of Week":"Thursday","infraction_code":"207","infraction_description":"PARK MACHINE-REQD FEE NOT PAID","Payment Related?":"FTP","set_fine_amount":"30","time_of_infraction":"804","location1":"NR","location2":"314 RONCESVALLES AVE","location3":"","location4":"","province":"ON","Latitude":"43.6497797","Longitude":"-79.4505891"},
{"tag_number_masked":"***62584","field2":"43461","Day of Week":"Thursday","infraction_code":"207","infraction_description":"PARK MACHINE-REQD FEE NOT PAID","Payment Related?":"FTP","set_fine_amount":"30","time_of_infraction":"804","location1":"NR","location2":"758 DUNDAS ST W","location3":"","location4":"","province":"ON","Latitude":"43.6523359","Longitude":"-79.4068057"},
{"tag_number_masked":"***72090","field2":"43461","Day of Week":"Thursday","infraction_code":"207","infraction_description":"PARK MACHINE-REQD FEE NOT PAID","Payment Related?":"FTP","set_fine_amount":"30","time_of_infraction":"805","location1":"OPP","location2":"42 WESTERN BATTERY RD","location3":"","location4":"","province":"ON","Latitude":"43.6396638","Longitude":"-79.4134616"},
{"tag_number_masked":"***30305","field2":"43461","Day of Week":"Thursday","infraction_code":"207","infraction_description":"PARK MACHINE-REQD FEE NOT PAID","Payment Related?":"FTP","set_fine_amount":"30","time_of_infraction":"807","location1":"OPP","location2":"150 ELIZABETH ST","location3":"","location4":"","province":"ON","Latitude":"40.6303028","Longitude":"-74.1202176"},
{"tag_number_masked":"***62585","field2":"43461","Day of Week":"Thursday","infraction_code":"207","infraction_description":"PARK MACHINE-REQD FEE NOT PAID","Payment Related?":"FTP","set_fine_amount":"30","time_of_infraction":"807","location1":"NR","location2":"850 DUNDAS ST W","location3":"","location4":"","province":"ON","Latitude":"43.6515536","Longitude":"-79.4103059"},
{"tag_number_masked":"***72091","field2":"43461","Day of Week":"Thursday","infraction_code":"207","infraction_description":"PARK MACHINE-REQD FEE NOT PAID","Payment Related?":"FTP","set_fine_amount":"30","time_of_infraction":"807","location1":"OPP","location2":"38 WESTERN BATTERY RD","location3":"","location4":"","province":"ON","Latitude":"43.6396381","Longitude":"-79.4131037"},
{"tag_number_masked":"***72092","field2":"43461","Day of Week":"Thursday","infraction_code":"207","infraction_description":"PARK MACHINE-REQD FEE NOT PAID","Payment Related?":"FTP","set_fine_amount":"30","time_of_infraction":"808","location1":"OPP","location2":"30 WESTERN BATTERY RD","location3":"","location4":"","province":"ON","Latitude":"43.6395675","Longitude":"-79.4124791"},
{"tag_number_masked":"***45590","field2":"43461","Day of Week":"Thursday","infraction_code":"207","infraction_description":"PARK MACHINE-REQD FEE NOT PAID","Payment Related?":"FTP","set_fine_amount":"30","time_of_infraction":"809","location1":"S/S","location2":"FOSTER PL","location3":"E/O","location4":"ELIZABETH ST","province":"ON","Latitude":"38.837673","Longitude":"-76.960301"},
{"tag_number_masked":"***41679","field2":"43461","Day of Week":"Thursday","infraction_code":"207","infraction_description":"PARK MACHINE-REQD FEE NOT PAID","Payment Related?":"FTP","set_fine_amount":"30","time_of_infraction":"809","location1":"NR","location2":"2210 BLOOR ST W","location3":"","location4":"","province":"ON","Latitude":"43.6513959","Longitude":"-79.4759902"},
{"tag_number_masked":"***72093","field2":"43461","Day of Week":"Thursday","infraction_code":"207","infraction_description":"PARK MACHINE-REQD FEE NOT PAID","Payment Related?":"FTP","set_fine_amount":"30","time_of_infraction":"810","location1":"OPP","location2":"30 WESTERN BATTERY RD","location3":"","location4":"","province":"ON","Latitude":"43.6395675","Longitude":"-79.4124791"},
{"tag_number_masked":"***72094","field2":"43461","Day of Week":"Thursday","infraction_code":"207","infraction_description":"PARK MACHINE-REQD FEE NOT PAID","Payment Related?":"FTP","set_fine_amount":"30","time_of_infraction":"811","location1":"OPP","location2":"22 WESTERN BATTERY RD","location3":"","location4":"","province":"ON","Latitude":"43.6397668","Longitude":"-79.4118942"},
{"tag_number_masked":"***29698","field2":"43461","Day of Week":"Thursday","infraction_code":"336","infraction_description":"PARK-FAIL TO DISPLAY PERMIT","Payment Related?":"FTP","set_fine_amount":"30","time_of_infraction":"812","location1":"NR","location2":"101 CRAWFORD ST","location3":"","location4":"","province":"ON","Latitude":"29.7602849","Longitude":"-95.3543356"},
{"tag_number_masked":"***30306","field2":"43461","Day of Week":"Thursday","infraction_code":"207","infraction_description":"PARK MACHINE-REQD FEE NOT PAID","Payment Related?":"FTP","set_fine_amount":"30","time_of_infraction":"812","location1":"OPP","location2":"190 ELIZABETH ST","location3":"","location4":"","province":"ON","Latitude":"40.7216049","Longitude":"-73.994412"},
{"tag_number_masked":"***41680","field2":"43461","Day of Week":"Thursday","infraction_code":"207","infraction_description":"PARK MACHINE-REQD FEE NOT PAID","Payment Related?":"FTP","set_fine_amount":"30","time_of_infraction":"812","location1":"NR","location2":"2210 BLOOR ST W","location3":"","location4":"","province":"ON","Latitude":"43.6513959","Longitude":"-79.4759902"},
{"tag_number_masked":"***72095","field2":"43461","Day of Week":"Thursday","infraction_code":"207","infraction_description":"PARK MACHINE-REQD FEE NOT PAID","Payment Related?":"FTP","set_fine_amount":"30","time_of_infraction":"812","location1":"OPP","location2":"22 WESTERN BATTERY RD","location3":"","location4":"","province":"ON","Latitude":"43.6397668","Longitude":"-79.4118942"},
{"tag_number_masked":"***30308","field2":"43461","Day of Week":"Thursday","infraction_code":"207","infraction_description":"PARK MACHINE-REQD FEE NOT PAID","Payment Related?":"FTP","set_fine_amount":"30","time_of_infraction":"815","location1":"OPP","location2":"190 ELIZABETH ST","location3":"","location4":"","province":"ON","Latitude":"40.7216049","Longitude":"-73.994412"},
{"tag_number_masked":"***30309","field2":"43461","Day of Week":"Thursday","infraction_code":"207","infraction_description":"PARK MACHINE-REQD FEE NOT PAID","Payment Related?":"FTP","set_fine_amount":"30","time_of_infraction":"817","location1":"NR","location2":"201 ELIZABETH ST","location3":"","location4":"","province":"ON","Latitude":"43.6597644","Longitude":"-79.3866667"},
{"tag_number_masked":"***30311","field2":"43461","Day of Week":"Thursday","infraction_code":"207","infraction_description":"PARK MACHINE-REQD FEE NOT PAID","Payment Related?":"FTP","set_fine_amount":"30","time_of_infraction":"823","location1":"W/S","location2":"LA PLANTE AVE","location3":"S/O","location4":"COLLEGE ST","province":"ON","Latitude":"42.5187248","Longitude":"-96.482492"},
{"tag_number_masked":"***62587","field2":"43461","Day of Week":"Thursday","infraction_code":"207","infraction_description":"PARK MACHINE-REQD FEE NOT PAID","Payment Related?":"FTP","set_fine_amount":"30","time_of_infraction":"823","location1":"NR","location2":"1358 DUNDAS ST W","location3":"","location4":"","province":"ON","Latitude":"43.6496198","Longitude":"-79.427684"},
{"tag_number_masked":"***62588","field2":"43461","Day of Week":"Thursday","infraction_code":"207","infraction_description":"PARK MACHINE-REQD FEE NOT PAID","Payment Related?":"FTP","set_fine_amount":"30","time_of_infraction":"825","location1":"NR","location2":"1452 DUNDAS ST W","location3":"","location4":"","province":"ON","Latitude":"43.6497797","Longitude":"-79.4305765"},
{"tag_number_masked":"***74858","field2":"43461","Day of Week":"Thursday","infraction_code":"207","infraction_description":"PARK MACHINE-REQD FEE NOT PAID","Payment Related?":"FTP","set_fine_amount":"30","time_of_infraction":"826","location1":"NR","location2":"20 VICTORIA ST","location3":"","location4":"","province":"ON","Latitude":"43.6499903","Longitude":"-79.3772003"},
{"tag_number_masked":"***83072","field2":"43461","Day of Week":"Thursday","infraction_code":"207","infraction_description":"PARK MACHINE-REQD FEE NOT PAID","Payment Related?":"FTP","set_fine_amount":"30","time_of_infraction":"826","location1":"OPP","location2":"115 MILL ST","location3":"","location4":"","province":"ON","Latitude":"42.96638","Longitude":"-78.743193"},
{"tag_number_masked":"***62589","field2":"43461","Day of Week":"Thursday","infraction_code":"207","infraction_description":"PARK MACHINE-REQD FEE NOT PAID","Payment Related?":"FTP","set_fine_amount":"30","time_of_infraction":"826","location1":"NR","location2":"1452 DUNDAS ST W","location3":"","location4":"","province":"ON","Latitude":"43.6497797","Longitude":"-79.4305765"},
{"tag_number_masked":"***45591","field2":"43461","Day of Week":"Thursday","infraction_code":"207","infraction_description":"PARK MACHINE-REQD FEE NOT PAID","Payment Related?":"FTP","set_fine_amount":"30","time_of_infraction":"828","location1":"NR","location2":"30 GRAND TRUNK CRES","location3":"","location4":"","province":"ON","Latitude":"43.6422784","Longitude":"-79.3827611"},
{"tag_number_masked":"***83073","field2":"43461","Day of Week":"Thursday","infraction_code":"207","infraction_description":"PARK MACHINE-REQD FEE NOT PAID","Payment Related?":"FTP","set_fine_amount":"30","time_of_infraction":"828","location1":"NR","location2":"115 MILL ST","location3":"","location4":"","province":"ON","Latitude":"42.96638","Longitude":"-78.743193"},
{"tag_number_masked":"***45592","field2":"43461","Day of Week":"Thursday","infraction_code":"207","infraction_description":"PARK MACHINE-REQD FEE NOT PAID","Payment Related?":"FTP","set_fine_amount":"30","time_of_infraction":"830","location1":"NR","location2":"30 GRAND TRUNK CRES","location3":"","location4":"","province":"ON","Latitude":"43.6422784","Longitude":"-79.3827611"},
{"tag_number_masked":"***30313","field2":"43461","Day of Week":"Thursday","infraction_code":"207","infraction_description":"PARK MACHINE-REQD FEE NOT PAID","Payment Related?":"FTP","set_fine_amount":"30","time_of_infraction":"830","location1":"N/S","location2":"HAYTER ST","location3":"W/O","location4":"BAY ST","province":"ON","Latitude":"44.9194402","Longitude":"-123.3215312"},
{"tag_number_masked":"***83074","field2":"43461","Day of Week":"Thursday","infraction_code":"207","infraction_description":"PARK MACHINE-REQD FEE NOT PAID","Payment Related?":"FTP","set_fine_amount":"30","time_of_infraction":"831","location1":"NR","location2":"103 ROLLING MILLS RD","location3":"","location4":"","province":"ON","Latitude":"36.2433747","Longitude":"-86.6222385"},
{"tag_number_masked":"***45593","field2":"43461","Day of Week":"Thursday","infraction_code":"207","infraction_description":"PARK MACHINE-REQD FEE NOT PAID","Payment Related?":"FTP","set_fine_amount":"30","time_of_infraction":"832","location1":"NR","location2":"30 GRAND TRUNK CRES","location3":"","location4":"","province":"ON","Latitude":"43.6422784","Longitude":"-79.3827611"},
{"tag_number_masked":"***83075","field2":"43461","Day of Week":"Thursday","infraction_code":"207","infraction_description":"PARK MACHINE-REQD FEE NOT PAID","Payment Related?":"FTP","set_fine_amount":"30","time_of_infraction":"833","location1":"NR","location2":"103 ROLLING MILLS RD","location3":"","location4":"","province":"ON","Latitude":"36.2433747","Longitude":"-86.6222385"},
{"tag_number_masked":"***45594","field2":"43461","Day of Week":"Thursday","infraction_code":"207","infraction_description":"PARK MACHINE-REQD FEE NOT PAID","Payment Related?":"FTP","set_fine_amount":"30","time_of_infraction":"834","location1":"NR","location2":"30 GRAND TRUNK CRES","location3":"","location4":"","province":"ON","Latitude":"43.6422784","Longitude":"-79.3827611"},
{"tag_number_masked":"***83076","field2":"43461","Day of Week":"Thursday","infraction_code":"207","infraction_description":"PARK MACHINE-REQD FEE NOT PAID","Payment Related?":"FTP","set_fine_amount":"30","time_of_infraction":"836","location1":"NR","location2":"465 FRONT ST E","location3":"","location4":"","province":"ON","Latitude":"43.6528213","Longitude":"-79.3560976"},
{"tag_number_masked":"***45596","field2":"43461","Day of Week":"Thursday","infraction_code":"207","infraction_description":"PARK MACHINE-REQD FEE NOT PAID","Payment Related?":"FTP","set_fine_amount":"30","time_of_infraction":"837","location1":"NR","location2":"30 GRAND TRUNK CRES","location3":"","location4":"","province":"ON","Latitude":"43.6422784","Longitude":"-79.3827611"},
{"tag_number_masked":"***83077","field2":"43461","Day of Week":"Thursday","infraction_code":"207","infraction_description":"PARK MACHINE-REQD FEE NOT PAID","Payment Related?":"FTP","set_fine_amount":"30","time_of_infraction":"838","location1":"OPP","location2":"465 FRONT ST E","location3":"","location4":"","province":"ON","Latitude":"43.6528213","Longitude":"-79.3560976"},
{"tag_number_masked":"***62592","field2":"43461","Day of Week":"Thursday","infraction_code":"336","infraction_description":"PARK-FAIL TO DISPLAY PERMIT","Payment Related?":"FTP","set_fine_amount":"30","time_of_infraction":"840","location1":"NR","location2":"199 DELAWARE AVE","location3":"","location4":"","province":"ON","Latitude":"42.8898318","Longitude":"-78.8766122"},
{"tag_number_masked":"***62593","field2":"43461","Day of Week":"Thursday","infraction_code":"336","infraction_description":"PARK-FAIL TO DISPLAY PERMIT","Payment Related?":"FTP","set_fine_amount":"30","time_of_infraction":"842","location1":"NR","location2":"285 DELAWARE AVE","location3":"","location4":"","province":"ON","Latitude":"42.8923533","Longitude":"-78.8758595"},
{"tag_number_masked":"***30314","field2":"43461","Day of Week":"Thursday","infraction_code":"207","infraction_description":"PARK MACHINE-REQD FEE NOT PAID","Payment Related?":"FTP","set_fine_amount":"30","time_of_infraction":"844","location1":"W/S","location2":"LA PLANTE AVE","location3":"S/O","location4":"HAYTER ST","province":"ON","Latitude":"42.5187248","Longitude":"-96.482492"},
{"tag_number_masked":"***06219","field2":"43461","Day of Week":"Thursday","infraction_code":"207","infraction_description":"PARK MACHINE-REQD FEE NOT PAID","Payment Related?":"FTP","set_fine_amount":"30","time_of_infraction":"845","location1":"NR","location2":"20 BRUNEL CRT","location3":"","location4":"","province":"ON","Latitude":"43.639466","Longitude":"-79.394499"},
{"tag_number_masked":"***30315","field2":"43461","Day of Week":"Thursday","infraction_code":"207","infraction_description":"PARK MACHINE-REQD FEE NOT PAID","Payment Related?":"FTP","set_fine_amount":"30","time_of_infraction":"846","location1":"W/S","location2":"LA PLANTE AVE","location3":"S/O","location4":"HAYTER ST","province":"ON","Latitude":"42.5187248","Longitude":"-96.482492"},
{"tag_number_masked":"***30316","field2":"43461","Day of Week":"Thursday","infraction_code":"207","infraction_description":"PARK MACHINE-REQD FEE NOT PAID","Payment Related?":"FTP","set_fine_amount":"30","time_of_infraction":"847","location1":"W/S","location2":"LA PLANTE AVE","location3":"S/O","location4":"HAYTER ST","province":"ON","Latitude":"42.5187248","Longitude":"-96.482492"},
{"tag_number_masked":"***83078","field2":"43461","Day of Week":"Thursday","infraction_code":"207","infraction_description":"PARK MACHINE-REQD FEE NOT PAID","Payment Related?":"FTP","set_fine_amount":"30","time_of_infraction":"849","location1":"N/S","location2":"PALACE ST","location3":"E/O","location4":"ROLLING MILLS RD","province":"ON","Latitude":"44.9471486","Longitude":"-93.0967889"},
{"tag_number_masked":"***30317","field2":"43461","Day of Week":"Thursday","infraction_code":"207","infraction_description":"PARK MACHINE-REQD FEE NOT PAID","Payment Related?":"FTP","set_fine_amount":"30","time_of_infraction":"849","location1":"W/S","location2":"LA PLANTE AVE","location3":"N/O","location4":"GERRARD ST W","province":"ON","Latitude":"42.5187248","Longitude":"-96.482492"},
{"tag_number_masked":"***83079","field2":"43461","Day of Week":"Thursday","infraction_code":"207","infraction_description":"PARK MACHINE-REQD FEE NOT PAID","Payment Related?":"FTP","set_fine_amount":"30","time_of_infraction":"850","location1":"N/S","location2":"PALACE ST","location3":"E/O","location4":"ROLLING MILLS RD","province":"ON","Latitude":"44.9471486","Longitude":"-93.0967889"},
{"tag_number_masked":"***83080","field2":"43461","Day of Week":"Thursday","infraction_code":"207","infraction_description":"PARK MACHINE-REQD FEE NOT PAID","Payment Related?":"FTP","set_fine_amount":"30","time_of_infraction":"856","location1":"NR","location2":"108 PALACE ST","location3":"","location4":"","province":"ON","Latitude":"#VALUE!","Longitude":"#VALUE!"},
{"tag_number_masked":"***83081","field2":"43461","Day of Week":"Thursday","infraction_code":"207","infraction_description":"PARK MACHINE-REQD FEE NOT PAID","Payment Related?":"FTP","set_fine_amount":"30","time_of_infraction":"859","location1":"NR","location2":"80 COOPERAGE ST","location3":"","location4":"","province":"ON","Latitude":"43.6534051","Longitude":"-79.3572958"},
{"tag_number_masked":"***62598","field2":"43461","Day of Week":"Thursday","infraction_code":"336","infraction_description":"PARK-FAIL TO DISPLAY PERMIT","Payment Related?":"FTP","set_fine_amount":"30","time_of_infraction":"859","location1":"NR","location2":"782 MANNING AVE","location3":"","location4":"","province":"ON","Latitude":"39.9514237","Longitude":"-82.9499886"},
{"tag_number_masked":"***45597","field2":"43461","Day of Week":"Thursday","infraction_code":"207","infraction_description":"PARK MACHINE-REQD FEE NOT PAID","Payment Related?":"FTP","set_fine_amount":"30","time_of_infraction":"901","location1":"N/S","location2":"ROBERTSON CRES","location3":"S/O","location4":"QUEENS QUAY W","province":"ON","Latitude":"49.079561","Longitude":"-122.526006"},
{"tag_number_masked":"***83082","field2":"43461","Day of Week":"Thursday","infraction_code":"207","infraction_description":"PARK MACHINE-REQD FEE NOT PAID","Payment Related?":"FTP","set_fine_amount":"30","time_of_infraction":"903","location1":"NR","location2":"111 COOPERAGE ST","location3":"","location4":"","province":"ON","Latitude":"43.6533312","Longitude":"-79.3564852"},
{"tag_number_masked":"***30321","field2":"43461","Day of Week":"Thursday","infraction_code":"207","infraction_description":"PARK MACHINE-REQD FEE NOT PAID","Payment Related?":"FTP","set_fine_amount":"30","time_of_infraction":"903","location1":"OPP","location2":"137 EDWARD ST","location3":"","location4":"","province":"ON","Latitude":"43.6554725","Longitude":"-79.3878736"},
{"tag_number_masked":"***83083","field2":"43461","Day of Week":"Thursday","infraction_code":"207","infraction_description":"PARK MACHINE-REQD FEE NOT PAID","Payment Related?":"FTP","set_fine_amount":"30","time_of_infraction":"911","location1":"NR","location2":"70 MILL ST","location3":"","location4":"","province":"ON","Latitude":"43.6510546","Longitude":"-79.3590608"},
{"tag_number_masked":"***30323","field2":"43461","Day of Week":"Thursday","infraction_code":"207","infraction_description":"PARK MACHINE-REQD FEE NOT PAID","Payment Related?":"FTP","set_fine_amount":"30","time_of_infraction":"912","location1":"NR","location2":"11 CENTRE AVE","location3":"","location4":"","province":"ON","Latitude":"40.7870531","Longitude":"-74.0555877"},
{"tag_number_masked":"***83084","field2":"43461","Day of Week":"Thursday","infraction_code":"207","infraction_description":"PARK MACHINE-REQD FEE NOT PAID","Payment Related?":"FTP","set_fine_amount":"30","time_of_infraction":"913","location1":"NR","location2":"70 MILL ST","location3":"","location4":"","province":"ON","Latitude":"43.6510546","Longitude":"-79.3590608"},
{"tag_number_masked":"***30324","field2":"43461","Day of Week":"Thursday","infraction_code":"207","infraction_description":"PARK MACHINE-REQD FEE NOT PAID","Payment Related?":"FTP","set_fine_amount":"30","time_of_infraction":"914","location1":"NR","location2":"11 CENTRE AVE","location3":"","location4":"","province":"ON","Latitude":"40.7870531","Longitude":"-74.0555877"},
{"tag_number_masked":"***83085","field2":"43461","Day of Week":"Thursday","infraction_code":"207","infraction_description":"PARK MACHINE-REQD FEE NOT PAID","Payment Related?":"FTP","set_fine_amount":"30","time_of_infraction":"918","location1":"NR","location2":"70 MILL ST","location3":"","location4":"","province":"ON","Latitude":"43.6510546","Longitude":"-79.3590608"},
{"tag_number_masked":"***62910","field2":"43461","Day of Week":"Thursday","infraction_code":"312","infraction_description":"PARKING MACH-NOT USED/NO FEE","Payment Related?":"FTP","set_fine_amount":"30","time_of_infraction":"945","location1":"","location2":"5667 YONGE ST","location3":"","location4":"","province":"ON","Latitude":"43.7815759","Longitude":"-79.4156573"},
{"tag_number_masked":"***45721","field2":"43461","Day of Week":"Thursday","infraction_code":"312","infraction_description":"PARKING MACH-NOT USED/NO FEE","Payment Related?":"FTP","set_fine_amount":"30","time_of_infraction":"946","location1":"AT","location2":"35 BELLEVUE AVENUE","location3":"","location4":"","province":"ON","Latitude":"39.8297018","Longitude":"-75.156385"},
{"tag_number_masked":"***41687","field2":"43461","Day of Week":"Thursday","infraction_code":"207","infraction_description":"PARK MACHINE-REQD FEE NOT PAID","Payment Related?":"FTP","set_fine_amount":"30","time_of_infraction":"946","location1":"NR","location2":"2230 BLOOR ST W","location3":"","location4":"","province":"ON","Latitude":"43.6512859","Longitude":"-79.4767823"},
{"tag_number_masked":"***62911","field2":"43461","Day of Week":"Thursday","infraction_code":"312","infraction_description":"PARKING MACH-NOT USED/NO FEE","Payment Related?":"FTP","set_fine_amount":"30","time_of_infraction":"949","location1":"","location2":"5667 YONGE ST","location3":"","location4":"","province":"ON","Latitude":"43.7815759","Longitude":"-79.4156573"},
{"tag_number_masked":"***45722","field2":"43461","Day of Week":"Thursday","infraction_code":"312","infraction_description":"PARKING MACH-NOT USED/NO FEE","Payment Related?":"FTP","set_fine_amount":"30","time_of_infraction":"950","location1":"AT","location2":"35 BELLEVUE AVENUE","location3":"","location4":"","province":"ON","Latitude":"39.8297018","Longitude":"-75.156385"},
{"tag_number_masked":"***50819","field2":"43461","Day of Week":"Thursday","infraction_code":"207","infraction_description":"PARK MACHINE-REQD FEE NOT PAID","Payment Related?":"FTP","set_fine_amount":"30","time_of_infraction":"951","location1":"OPP","location2":"40 SCOLLARD ST","location3":"","location4":"","province":"ON","Latitude":"43.6725538","Longitude":"-79.389571"},
{"tag_number_masked":"***50820","field2":"43461","Day of Week":"Thursday","infraction_code":"207","infraction_description":"PARK MACHINE-REQD FEE NOT PAID","Payment Related?":"FTP","set_fine_amount":"30","time_of_infraction":"953","location1":"NR","location2":"21 SCOLLARD ST","location3":"","location4":"","province":"ON","Latitude":"43.6723158","Longitude":"-79.3888155"},
{"tag_number_masked":"***50821","field2":"43461","Day of Week":"Thursday","infraction_code":"207","infraction_description":"PARK MACHINE-REQD FEE NOT PAID","Payment Related?":"FTP","set_fine_amount":"30","time_of_infraction":"954","location1":"NR","location2":"21 SCOLLARD ST","location3":"","location4":"","province":"ON","Latitude":"43.6723158","Longitude":"-79.3888155"},
{"tag_number_masked":"***30330","field2":"43461","Day of Week":"Thursday","infraction_code":"207","infraction_description":"PARK MACHINE-REQD FEE NOT PAID","Payment Related?":"FTP","set_fine_amount":"30","time_of_infraction":"954","location1":"OPP","location2":"64 EDWARD ST","location3":"","location4":"","province":"ON","Latitude":"42.3999848","Longitude":"-71.1019361"},
{"tag_number_masked":"***30331","field2":"43461","Day of Week":"Thursday","infraction_code":"207","infraction_description":"PARK MACHINE-REQD FEE NOT PAID","Payment Related?":"FTP","set_fine_amount":"30","time_of_infraction":"958","location1":"OPP","location2":"20 EDWARD ST","location3":"","location4":"","province":"ON","Latitude":"42.2707147","Longitude":"-71.7924355"},
{"tag_number_masked":"***48440","field2":"43461","Day of Week":"Thursday","infraction_code":"207","infraction_description":"PARK MACHINE-REQD FEE NOT PAID","Payment Related?":"FTP","set_fine_amount":"30","time_of_infraction":"1002","location1":"NR","location2":"52 MCMURRICH ST","location3":"","location4":"","province":"ON","Latitude":"43.674488","Longitude":"-79.3905072"},
{"tag_number_masked":"***62912","field2":"43461","Day of Week":"Thursday","infraction_code":"312","infraction_description":"PARKING MACH-NOT USED/NO FEE","Payment Related?":"FTP","set_fine_amount":"30","time_of_infraction":"1003","location1":"","location2":"11 FINCH AVE W","location3":"","location4":"","province":"ON","Latitude":"43.7796631","Longitude":"-79.4160643"},
{"tag_number_masked":"***48441","field2":"43461","Day of Week":"Thursday","infraction_code":"207","infraction_description":"PARK MACHINE-REQD FEE NOT PAID","Payment Related?":"FTP","set_fine_amount":"30","time_of_infraction":"1004","location1":"NR","location2":"38 MCMURRICH ST","location3":"","location4":"","province":"ON","Latitude":"43.674034","Longitude":"-79.3900941"},
{"tag_number_masked":"***62913","field2":"43461","Day of Week":"Thursday","infraction_code":"312","infraction_description":"PARKING MACH-NOT USED/NO FEE","Payment Related?":"FTP","set_fine_amount":"30","time_of_infraction":"1007","location1":"","location2":"11 FINCH AVE W","location3":"","location4":"","province":"ON","Latitude":"43.7796631","Longitude":"-79.4160643"},
{"tag_number_masked":"***99446","field2":"43461","Day of Week":"Thursday","infraction_code":"207","infraction_description":"PARK MACHINE-REQD FEE NOT PAID","Payment Related?":"FTP","set_fine_amount":"30","time_of_infraction":"1011","location1":"NR","location2":"22 WOODLAWN AVE E","location3":"","location4":"","province":"ON","Latitude":"43.075721","Longitude":"-75.2779151"},
{"tag_number_masked":"***30333","field2":"43461","Day of Week":"Thursday","infraction_code":"207","infraction_description":"PARK MACHINE-REQD FEE NOT PAID","Payment Related?":"FTP","set_fine_amount":"30","time_of_infraction":"1011","location1":"NR","location2":"37 ELM ST","location3":"","location4":"","province":"ON","Latitude":"42.3516","Longitude":"-71.230741"},
{"tag_number_masked":"***41691","field2":"43461","Day of Week":"Thursday","infraction_code":"207","infraction_description":"PARK MACHINE-REQD FEE NOT PAID","Payment Related?":"FTP","set_fine_amount":"30","time_of_infraction":"1011","location1":"NR","location2":"2373 BLOOR ST W","location3":"","location4":"","province":"ON","Latitude":"43.6497537","Longitude":"-79.4819961"},
{"tag_number_masked":"***69720","field2":"43461","Day of Week":"Thursday","infraction_code":"207","infraction_description":"PARK MACHINE-REQD FEE NOT PAID","Payment Related?":"FTP","set_fine_amount":"30","time_of_infraction":"1012","location1":"NR","location2":"2197 BLOOR ST W","location3":"","location4":"","province":"ON","Latitude":"43.6511104","Longitude":"-79.4750905"},
{"tag_number_masked":"***30334","field2":"43461","Day of Week":"Thursday","infraction_code":"207","infraction_description":"PARK MACHINE-REQD FEE NOT PAID","Payment Related?":"FTP","set_fine_amount":"30","time_of_infraction":"1012","location1":"NR","location2":"35 ELM ST","location3":"","location4":"","province":"ON","Latitude":"43.9119533","Longitude":"-69.966782"},
{"tag_number_masked":"***69721","field2":"43461","Day of Week":"Thursday","infraction_code":"207","infraction_description":"PARK MACHINE-REQD FEE NOT PAID","Payment Related?":"FTP","set_fine_amount":"30","time_of_infraction":"1013","location1":"NR","location2":"2197 BLOOR ST W","location3":"","location4":"","province":"ON","Latitude":"43.6511104","Longitude":"-79.4750905"},
{"tag_number_masked":"***48442","field2":"43461","Day of Week":"Thursday","infraction_code":"207","infraction_description":"PARK MACHINE-REQD FEE NOT PAID","Payment Related?":"FTP","set_fine_amount":"30","time_of_infraction":"1013","location1":"NR","location2":"24 ELGIN AVE","location3":"","location4":"","province":"ON","Latitude":"41.3764069","Longitude":"-73.4225446"},
{"tag_number_masked":"***30335","field2":"43461","Day of Week":"Thursday","infraction_code":"207","infraction_description":"PARK MACHINE-REQD FEE NOT PAID","Payment Related?":"FTP","set_fine_amount":"30","time_of_infraction":"1015","location1":"NR","location2":"2 ELM ST","location3":"","location4":"","province":"ON","Latitude":"42.5002632","Longitude":"-71.1602836"},
{"tag_number_masked":"***48443","field2":"43461","Day of Week":"Thursday","infraction_code":"207","infraction_description":"PARK MACHINE-REQD FEE NOT PAID","Payment Related?":"FTP","set_fine_amount":"30","time_of_infraction":"1016","location1":"NR","location2":"36 ELGIN AVE","location3":"","location4":"","province":"ON","Latitude":"36.2060356","Longitude":"-95.990593"},
{"tag_number_masked":"***69722","field2":"43461","Day of Week":"Thursday","infraction_code":"207","infraction_description":"PARK MACHINE-REQD FEE NOT PAID","Payment Related?":"FTP","set_fine_amount":"30","time_of_infraction":"1018","location1":"NR","location2":"2236 BLOOR ST W","location3":"","location4":"","province":"ON","Latitude":"43.6512384","Longitude":"-79.4769691"},
{"tag_number_masked":"***62914","field2":"43461","Day of Week":"Thursday","infraction_code":"312","infraction_description":"PARKING MACH-NOT USED/NO FEE","Payment Related?":"FTP","set_fine_amount":"30","time_of_infraction":"1020","location1":"","location2":"10 EMPRESS AVE","location3":"","location4":"","province":"ON","Latitude":"43.7695868","Longitude":"-79.4125796"},
{"tag_number_masked":"***17936","field2":"43461","Day of Week":"Thursday","infraction_code":"2","infraction_description":"PARK - LONGER THAN 3 HOURS","Payment Related?":"FTP","set_fine_amount":"15","time_of_infraction":"1023","location1":"NR","location2":"240 GAMMA ST","location3":"","location4":"","province":"ON","Latitude":"32.6898042","Longitude":"-117.1072735"},
{"tag_number_masked":"***48445","field2":"43461","Day of Week":"Thursday","infraction_code":"207","infraction_description":"PARK MACHINE-REQD FEE NOT PAID","Payment Related?":"FTP","set_fine_amount":"30","time_of_infraction":"1023","location1":"NR","location2":"7 BERNARD AVE","location3":"","location4":"","province":"ON","Latitude":"40.9329057","Longitude":"-74.1782057"},
{"tag_number_masked":"***17937","field2":"43461","Day of Week":"Thursday","infraction_code":"2","infraction_description":"PARK - LONGER THAN 3 HOURS","Payment Related?":"FTP","set_fine_amount":"15","time_of_infraction":"1024","location1":"NR","location2":"240 GAMMA ST","location3":"","location4":"","province":"ON","Latitude":"32.6898042","Longitude":"-117.1072735"},
{"tag_number_masked":"***62619","field2":"43461","Day of Week":"Thursday","infraction_code":"207","infraction_description":"PARK MACHINE-REQD FEE NOT PAID","Payment Related?":"FTP","set_fine_amount":"30","time_of_infraction":"1024","location1":"NR","location2":"1078 BLOOR ST W","location3":"","location4":"","province":"ON","Latitude":"43.6603771","Longitude":"-79.4335356"},
{"tag_number_masked":"***17938","field2":"43461","Day of Week":"Thursday","infraction_code":"2","infraction_description":"PARK - LONGER THAN 3 HOURS","Payment Related?":"FTP","set_fine_amount":"15","time_of_infraction":"1025","location1":"NR","location2":"244 GAMMA ST","location3":"","location4":"","province":"ON","Latitude":"32.6898042","Longitude":"-117.1072735"},
{"tag_number_masked":"***30336","field2":"43461","Day of Week":"Thursday","infraction_code":"207","infraction_description":"PARK MACHINE-REQD FEE NOT PAID","Payment Related?":"FTP","set_fine_amount":"30","time_of_infraction":"1025","location1":"OPP","location2":"123 EDWARD ST","location3":"","location4":"","province":"ON","Latitude":"43.6556377","Longitude":"-79.3868108"},
{"tag_number_masked":"***17939","field2":"43461","Day of Week":"Thursday","infraction_code":"2","infraction_description":"PARK - LONGER THAN 3 HOURS","Payment Related?":"FTP","set_fine_amount":"15","time_of_infraction":"1026","location1":"NR","location2":"244 GAMMA ST","location3":"","location4":"","province":"ON","Latitude":"32.6898042","Longitude":"-117.1072735"},
{"tag_number_masked":"***62620","field2":"43461","Day of Week":"Thursday","infraction_code":"207","infraction_description":"PARK MACHINE-REQD FEE NOT PAID","Payment Related?":"FTP","set_fine_amount":"30","time_of_infraction":"1027","location1":"NR","location2":"1022 BLOOR ST W","location3":"","location4":"","province":"ON","Latitude":"43.6609747","Longitude":"-79.4312518"},
{"tag_number_masked":"***62621","field2":"43461","Day of Week":"Thursday","infraction_code":"207","infraction_description":"PARK MACHINE-REQD FEE NOT PAID","Payment Related?":"FTP","set_fine_amount":"30","time_of_infraction":"1028","location1":"NR","location2":"1010 BLOOR ST W","location3":"","location4":"","province":"ON","Latitude":"43.6610872","Longitude":"-79.4308733"},
{"tag_number_masked":"***62623","field2":"43461","Day of Week":"Thursday","infraction_code":"207","infraction_description":"PARK MACHINE-REQD FEE NOT PAID","Payment Related?":"FTP","set_fine_amount":"30","time_of_infraction":"1030","location1":"NR","location2":"992 BLOOR ST W","location3":"","location4":"","province":"ON","Latitude":"43.6612359","Longitude":"-79.4300819"},
{"tag_number_masked":"***41693","field2":"43461","Day of Week":"Thursday","infraction_code":"207","infraction_description":"PARK MACHINE-REQD FEE NOT PAID","Payment Related?":"FTP","set_fine_amount":"30","time_of_infraction":"1031","location1":"NR","location2":"3095 DUNDAS ST W","location3":"","location4":"","province":"ON","Latitude":"43.6653742","Longitude":"-79.4727835"},
{"tag_number_masked":"***62624","field2":"43461","Day of Week":"Thursday","infraction_code":"207","infraction_description":"PARK MACHINE-REQD FEE NOT PAID","Payment Related?":"FTP","set_fine_amount":"30","time_of_infraction":"1032","location1":"NR","location2":"1003 BLOOR ST W","location3":"","location4":"","province":"ON","Latitude":"43.6607998","Longitude":"-79.4302732"},
{"tag_number_masked":"***48447","field2":"43461","Day of Week":"Thursday","infraction_code":"207","infraction_description":"PARK MACHINE-REQD FEE NOT PAID","Payment Related?":"FTP","set_fine_amount":"30","time_of_infraction":"1033","location1":"NR","location2":"161 ST GEORGE ST","location3":"","location4":"","province":"ON","Latitude":"43.670338","Longitude":"-79.4004197"},
{"tag_number_masked":"***62625","field2":"43461","Day of Week":"Thursday","infraction_code":"207","infraction_description":"PARK MACHINE-REQD FEE NOT PAID","Payment Related?":"FTP","set_fine_amount":"30","time_of_infraction":"1036","location1":"NR","location2":"1071 BLOOR ST W","location3":"","location4":"","province":"ON","Latitude":"43.6602295","Longitude":"-79.4328077"},
{"tag_number_masked":"***30340","field2":"43461","Day of Week":"Thursday","infraction_code":"207","infraction_description":"PARK MACHINE-REQD FEE NOT PAID","Payment Related?":"FTP","set_fine_amount":"30","time_of_infraction":"1038","location1":"NR","location2":"438 UNIVERSITY AVE","location3":"","location4":"","province":"ON","Latitude":"43.6543141","Longitude":"-79.3888436"},
{"tag_number_masked":"***41694","field2":"43461","Day of Week":"Thursday","infraction_code":"207","infraction_description":"PARK MACHINE-REQD FEE NOT PAID","Payment Related?":"FTP","set_fine_amount":"30","time_of_infraction":"1041","location1":"NR","location2":"2926 DUNDAS ST W","location3":"","location4":"","province":"ON","Latitude":"43.6655641","Longitude":"-79.4670509"},
{"tag_number_masked":"***41695","field2":"43461","Day of Week":"Thursday","infraction_code":"207","infraction_description":"PARK MACHINE-REQD FEE NOT PAID","Payment Related?":"FTP","set_fine_amount":"30","time_of_infraction":"1042","location1":"NR","location2":"2926 DUNDAS ST W","location3":"","location4":"","province":"ON","Latitude":"43.6655641","Longitude":"-79.4670509"},
{"tag_number_masked":"***48449","field2":"43461","Day of Week":"Thursday","infraction_code":"207","infraction_description":"PARK MACHINE-REQD FEE NOT PAID","Payment Related?":"FTP","set_fine_amount":"30","time_of_infraction":"1042","location1":"NR","location2":"309 ST GEORGE ST","location3":"","location4":"","province":"ON","Latitude":"29.8860592","Longitude":"-81.3104674"},
{"tag_number_masked":"***83089","field2":"43461","Day of Week":"Thursday","infraction_code":"207","infraction_description":"PARK MACHINE-REQD FEE NOT PAID","Payment Related?":"FTP","set_fine_amount":"30","time_of_infraction":"1043","location1":"N/S","location2":"FRONT ST E","location3":"W/O","location4":"CHERRY ST","province":"ON","Latitude":"43.650845","Longitude":"-79.3658486"},
{"tag_number_masked":"***69724","field2":"43461","Day of Week":"Thursday","infraction_code":"207","infraction_description":"PARK MACHINE-REQD FEE NOT PAID","Payment Related?":"FTP","set_fine_amount":"30","time_of_infraction":"1044","location1":"NR","location2":"2202 BLOOR ST W","location3":"","location4":"","province":"ON","Latitude":"43.6514766","Longitude":"-79.4756398"},
{"tag_number_masked":"***30341","field2":"43461","Day of Week":"Thursday","infraction_code":"207","infraction_description":"PARK MACHINE-REQD FEE NOT PAID","Payment Related?":"FTP","set_fine_amount":"30","time_of_infraction":"1044","location1":"NR","location2":"20 ARMOURY ST","location3":"","location4":"","province":"ON","Latitude":"43.6533484","Longitude":"-79.3864086"},
{"tag_number_masked":"***41696","field2":"43461","Day of Week":"Thursday","infraction_code":"207","infraction_description":"PARK MACHINE-REQD FEE NOT PAID","Payment Related?":"FTP","set_fine_amount":"30","time_of_infraction":"1044","location1":"NR","location2":"2951 DUNDAS ST W","location3":"","location4":"","province":"ON","Latitude":"43.6652183","Longitude":"-79.46751"},
{"tag_number_masked":"***69725","field2":"43461","Day of Week":"Thursday","infraction_code":"207","infraction_description":"PARK MACHINE-REQD FEE NOT PAID","Payment Related?":"FTP","set_fine_amount":"30","time_of_infraction":"1045","location1":"NR","location2":"2198 BLOOR ST W","location3":"","location4":"","province":"ON","Latitude":"43.6515962","Longitude":"-79.4755299"},
{"tag_number_masked":"***09998","field2":"43461","Day of Week":"Thursday","infraction_code":"207","infraction_description":"PARK MACHINE-REQD FEE NOT PAID","Payment Related?":"FTP","set_fine_amount":"30","time_of_infraction":"1046","location1":"NR","location2":"22 VAUGHAN RD","location3":"","location4":"","province":"ON","Latitude":"43.6816585","Longitude":"-79.4184347"},
{"tag_number_masked":"***09999","field2":"43461","Day of Week":"Thursday","infraction_code":"207","infraction_description":"PARK MACHINE-REQD FEE NOT PAID","Payment Related?":"FTP","set_fine_amount":"30","time_of_infraction":"1048","location1":"NR","location2":"22 VAUGHAN RD","location3":"","location4":"","province":"ON","Latitude":"43.6816585","Longitude":"-79.4184347"},
{"tag_number_masked":"***19275","field2":"43461","Day of Week":"Thursday","infraction_code":"207","infraction_description":"PARK MACHINE-REQD FEE NOT PAID","Payment Related?":"FTP","set_fine_amount":"30","time_of_infraction":"1049","location1":"NR","location2":"16 VAUGHAN RD","location3":"","location4":"","province":"ON","Latitude":"43.6815133","Longitude":"-79.4184086"},
{"tag_number_masked":"***19276","field2":"43461","Day of Week":"Thursday","infraction_code":"207","infraction_description":"PARK MACHINE-REQD FEE NOT PAID","Payment Related?":"FTP","set_fine_amount":"30","time_of_infraction":"1053","location1":"NR","location2":"21 VAUGHAN RD","location3":"","location4":"","province":"ON","Latitude":"43.6820484","Longitude":"-79.4182634"},
{"tag_number_masked":"***19277","field2":"43461","Day of Week":"Thursday","infraction_code":"207","infraction_description":"PARK MACHINE-REQD FEE NOT PAID","Payment Related?":"FTP","set_fine_amount":"30","time_of_infraction":"1054","location1":"NR","location2":"21 VAUGHAN RD","location3":"","location4":"","province":"ON","Latitude":"43.6820484","Longitude":"-79.4182634"},
{"tag_number_masked":"***19278","field2":"43461","Day of Week":"Thursday","infraction_code":"207","infraction_description":"PARK MACHINE-REQD FEE NOT PAID","Payment Related?":"FTP","set_fine_amount":"30","time_of_infraction":"1056","location1":"NR","location2":"21 VAUGHAN RD","location3":"","location4":"","province":"ON","Latitude":"43.6820484","Longitude":"-79.4182634"},
{"tag_number_masked":"***19279","field2":"43461","Day of Week":"Thursday","infraction_code":"207","infraction_description":"PARK MACHINE-REQD FEE NOT PAID","Payment Related?":"FTP","set_fine_amount":"30","time_of_infraction":"1057","location1":"NR","location2":"21 VAUGHAN RD","location3":"","location4":"","province":"ON","Latitude":"43.6820484","Longitude":"-79.4182634"},
{"tag_number_masked":"***06242","field2":"43461","Day of Week":"Thursday","infraction_code":"207","infraction_description":"PARK MACHINE-REQD FEE NOT PAID","Payment Related?":"FTP","set_fine_amount":"30","time_of_infraction":"1100","location1":"NR","location2":"20 CAPREOL CRT","location3":"","location4":"","province":"ON","Latitude":"43.6405224","Longitude":"-79.3960031"},
{"tag_number_masked":"***19281","field2":"43461","Day of Week":"Thursday","infraction_code":"207","infraction_description":"PARK MACHINE-REQD FEE NOT PAID","Payment Related?":"FTP","set_fine_amount":"30","time_of_infraction":"1100","location1":"NR","location2":"33 VAUGHAN RD","location3":"","location4":"","province":"ON","Latitude":"43.6824042","Longitude":"-79.4186904"},
{"tag_number_masked":"***06243","field2":"43461","Day of Week":"Thursday","infraction_code":"207","infraction_description":"PARK MACHINE-REQD FEE NOT PAID","Payment Related?":"FTP","set_fine_amount":"30","time_of_infraction":"1102","location1":"NR","location2":"16 CAPREOL CRT","location3":"","location4":"","province":"ON","Latitude":"43.6404631","Longitude":"-79.3959753"},
{"tag_number_masked":"***06245","field2":"43461","Day of Week":"Thursday","infraction_code":"207","infraction_description":"PARK MACHINE-REQD FEE NOT PAID","Payment Related?":"FTP","set_fine_amount":"30","time_of_infraction":"1107","location1":"NR","location2":"10 CAPREOL CRT","location3":"","location4":"","province":"ON","Latitude":"43.6402232","Longitude":"-79.395951"},
{"tag_number_masked":"***60552","field2":"43461","Day of Week":"Thursday","infraction_code":"207","infraction_description":"PARK MACHINE-REQD FEE NOT PAID","Payment Related?":"FTP","set_fine_amount":"30","time_of_infraction":"1108","location1":"OPP","location2":"38 JOE SHUSTER WAY","location3":"","location4":"","province":"ON","Latitude":"43.6405881","Longitude":"-79.4248274"},
{"tag_number_masked":"***45723","field2":"43461","Day of Week":"Thursday","infraction_code":"312","infraction_description":"PARKING MACH-NOT USED/NO FEE","Payment Related?":"FTP","set_fine_amount":"30","time_of_infraction":"1111","location1":"AT","location2":"803 RICHMOND ST W","location3":"","location4":"","province":"ON","Latitude":"43.644563","Longitude":"-79.4106359"},
{"tag_number_masked":"***60553","field2":"43461","Day of Week":"Thursday","infraction_code":"207","infraction_description":"PARK MACHINE-REQD FEE NOT PAID","Payment Related?":"FTP","set_fine_amount":"30","time_of_infraction":"1112","location1":"OPP","location2":"80 JOE SHUSTER WAY","location3":"","location4":"","province":"ON","Latitude":"43.641392","Longitude":"-79.4274913"},
{"tag_number_masked":"***83091","field2":"43461","Day of Week":"Thursday","infraction_code":"207","infraction_description":"PARK MACHINE-REQD FEE NOT PAID","Payment Related?":"FTP","set_fine_amount":"30","time_of_infraction":"1113","location1":"W/S","location2":"PRINCESS ST","location3":"N/O","location4":"FRONT ST E","province":"ON","Latitude":"38.8086898","Longitude":"-77.048005"},
{"tag_number_masked":"***41698","field2":"43461","Day of Week":"Thursday","infraction_code":"207","infraction_description":"PARK MACHINE-REQD FEE NOT PAID","Payment Related?":"FTP","set_fine_amount":"30","time_of_infraction":"1113","location1":"NR","location2":"2195 BLOOR ST W","location3":"","location4":"","province":"ON","Latitude":"43.6511104","Longitude":"-79.4750905"},
{"tag_number_masked":"***30348","field2":"43461","Day of Week":"Thursday","infraction_code":"207","infraction_description":"PARK MACHINE-REQD FEE NOT PAID","Payment Related?":"FTP","set_fine_amount":"30","time_of_infraction":"1117","location1":"OPP","location2":"170 ELIZABETH ST","location3":"","location4":"","province":"ON","Latitude":"40.7209489","Longitude":"-73.9946875"},
{"tag_number_masked":"***60554","field2":"43461","Day of Week":"Thursday","infraction_code":"207","infraction_description":"PARK MACHINE-REQD FEE NOT PAID","Payment Related?":"FTP","set_fine_amount":"30","time_of_infraction":"1118","location1":"NR","location2":"1314 QUEEN ST W","location3":"","location4":"","province":"ON","Latitude":"43.6419257","Longitude":"-79.4311168"},
{"tag_number_masked":"***31908","field2":"43461","Day of Week":"Thursday","infraction_code":"207","infraction_description":"PARK MACHINE-REQD FEE NOT PAID","Payment Related?":"FTP","set_fine_amount":"30","time_of_infraction":"1118","location1":"NR","location2":"1050 COXWELL AVE","location3":"","location4":"","province":"ON","Latitude":"43.6970097","Longitude":"-79.3295905"},
{"tag_number_masked":"***68109","field2":"43461","Day of Week":"Thursday","infraction_code":"207","infraction_description":"PARK MACHINE-REQD FEE NOT PAID","Payment Related?":"FTP","set_fine_amount":"30","time_of_infraction":"1120","location1":"NR","location2":"778 KING ST W","location3":"","location4":"","province":"ON","Latitude":"43.6434241","Longitude":"-79.4060742"},
{"tag_number_masked":"***31909","field2":"43461","Day of Week":"Thursday","infraction_code":"207","infraction_description":"PARK MACHINE-REQD FEE NOT PAID","Payment Related?":"FTP","set_fine_amount":"30","time_of_infraction":"1120","location1":"NR","location2":"1040 COXWELL AVE","location3":"","location4":"","province":"ON","Latitude":"43.6969219","Longitude":"-79.3295204"},
{"tag_number_masked":"***51098","field2":"43461","Day of Week":"Thursday","infraction_code":"207","infraction_description":"PARK MACHINE-REQD FEE NOT PAID","Payment Related?":"FTP","set_fine_amount":"30","time_of_infraction":"1120","location1":"E/S","location2":"ELIZABETH ST","location3":"S/O","location4":"DUNDAS ST W","province":"ON","Latitude":"40.720633","Longitude":"-73.9949718"},
{"tag_number_masked":"***83092","field2":"43461","Day of Week":"Thursday","infraction_code":"207","infraction_description":"PARK MACHINE-REQD FEE NOT PAID","Payment Related?":"FTP","set_fine_amount":"30","time_of_infraction":"1121","location1":"OPP","location2":"31 PRINCESS ST","location3":"","location4":"","province":"ON","Latitude":"43.6501688","Longitude":"-79.3661642"},
{"tag_number_masked":"***31910","field2":"43461","Day of Week":"Thursday","infraction_code":"207","infraction_description":"PARK MACHINE-REQD FEE NOT PAID","Payment Related?":"FTP","set_fine_amount":"30","time_of_infraction":"1122","location1":"NR","location2":"1030 COXWELL AVE","location3":"","location4":"","province":"ON","Latitude":"43.6967872","Longitude":"-79.3293157"},
{"tag_number_masked":"***60555","field2":"43461","Day of Week":"Thursday","infraction_code":"207","infraction_description":"PARK MACHINE-REQD FEE NOT PAID","Payment Related?":"FTP","set_fine_amount":"30","time_of_infraction":"1123","location1":"NR","location2":"1368 QUEEN ST W","location3":"","location4":"","province":"ON","Latitude":"43.6415051","Longitude":"-79.4330055"},
{"tag_number_masked":"***31911","field2":"43461","Day of Week":"Thursday","infraction_code":"207","infraction_description":"PARK MACHINE-REQD FEE NOT PAID","Payment Related?":"FTP","set_fine_amount":"30","time_of_infraction":"1124","location1":"NR","location2":"1006 COXWELL AVE","location3":"","location4":"","province":"ON","Latitude":"43.6965449","Longitude":"-79.3292685"},
{"tag_number_masked":"***57253","field2":"43461","Day of Week":"Thursday","infraction_code":"207","infraction_description":"PARK MACHINE-REQD FEE NOT PAID","Payment Related?":"FTP","set_fine_amount":"30","time_of_infraction":"1125","location1":"NR","location2":"186 SPADINA AVE","location3":"","location4":"","province":"ON","Latitude":"43.6497875","Longitude":"-79.3970569"},
{"tag_number_masked":"***58856","field2":"43461","Day of Week":"Thursday","infraction_code":"207","infraction_description":"PARK MACHINE-REQD FEE NOT PAID","Payment Related?":"FTP","set_fine_amount":"30","time_of_infraction":"1126","location1":"NR","location2":"191 AUGUSTA AVE","location3":"","location4":"","province":"ON","Latitude":"36.3880969","Longitude":"-87.0155005"},
{"tag_number_masked":"***30351","field2":"43461","Day of Week":"Thursday","infraction_code":"207","infraction_description":"PARK MACHINE-REQD FEE NOT PAID","Payment Related?":"FTP","set_fine_amount":"30","time_of_infraction":"1126","location1":"NR","location2":"150 ELIZABETH ST","location3":"","location4":"","province":"ON","Latitude":"40.6303028","Longitude":"-74.1202176"},
{"tag_number_masked":"***30352","field2":"43461","Day of Week":"Thursday","infraction_code":"207","infraction_description":"PARK MACHINE-REQD FEE NOT PAID","Payment Related?":"FTP","set_fine_amount":"30","time_of_infraction":"1127","location1":"NR","location2":"150 ELIZABETH ST","location3":"","location4":"","province":"ON","Latitude":"40.6303028","Longitude":"-74.1202176"},
{"tag_number_masked":"***31912","field2":"43461","Day of Week":"Thursday","infraction_code":"207","infraction_description":"PARK MACHINE-REQD FEE NOT PAID","Payment Related?":"FTP","set_fine_amount":"30","time_of_infraction":"1127","location1":"NR","location2":"1000 COXWELL AVE","location3":"","location4":"","province":"ON","Latitude":"43.6964291","Longitude":"-79.3291971"},
{"tag_number_masked":"***16360","field2":"43461","Day of Week":"Thursday","infraction_code":"207","infraction_description":"PARK MACHINE-REQD FEE NOT PAID","Payment Related?":"FTP","set_fine_amount":"30","time_of_infraction":"1128","location1":"NR","location2":"125 QUEEN ST E","location3":"","location4":"","province":"ON","Latitude":"43.690167","Longitude":"-79.7549489"},
{"tag_number_masked":"***31913","field2":"43461","Day of Week":"Thursday","infraction_code":"207","infraction_description":"PARK MACHINE-REQD FEE NOT PAID","Payment Related?":"FTP","set_fine_amount":"30","time_of_infraction":"1128","location1":"NR","location2":"992 COXWELL AVE","location3":"","location4":"","province":"ON","Latitude":"43.6962517","Longitude":"-79.3291317"},
{"tag_number_masked":"***67853","field2":"43461","Day of Week":"Thursday","infraction_code":"207","infraction_description":"PARK MACHINE-REQD FEE NOT PAID","Payment Related?":"FTP","set_fine_amount":"30","time_of_infraction":"1129","location1":"N/S","location2":"GLENDORA AVE","location3":"E/O","location4":"YONGE ST","province":"ON","Latitude":"34.1173171","Longitude":"-117.8643218"},
{"tag_number_masked":"***60557","field2":"43461","Day of Week":"Thursday","infraction_code":"207","infraction_description":"PARK MACHINE-REQD FEE NOT PAID","Payment Related?":"FTP","set_fine_amount":"30","time_of_infraction":"1131","location1":"NR","location2":"1500 QUEEN ST W","location3":"","location4":"","province":"ON","Latitude":"43.6404067","Longitude":"-79.4381208"},
{"tag_number_masked":"***51100","field2":"43461","Day of Week":"Thursday","infraction_code":"207","infraction_description":"PARK MACHINE-REQD FEE NOT PAID","Payment Related?":"FTP","set_fine_amount":"30","time_of_infraction":"1131","location1":"E/S","location2":"CENTRE AVE","location3":"S/O","location4":"DUNDAS ST W","province":"ON","Latitude":"40.4509331","Longitude":"-79.9549131"},
{"tag_number_masked":"***16361","field2":"43461","Day of Week":"Thursday","infraction_code":"207","infraction_description":"PARK MACHINE-REQD FEE NOT PAID","Payment Related?":"FTP","set_fine_amount":"30","time_of_infraction":"1132","location1":"NR","location2":"111 QUEEN ST E","location3":"","location4":"","province":"ON","Latitude":"43.6533063","Longitude":"-79.3741304"},
{"tag_number_masked":"***60558","field2":"43461","Day of Week":"Thursday","infraction_code":"207","infraction_description":"PARK MACHINE-REQD FEE NOT PAID","Payment Related?":"FTP","set_fine_amount":"30","time_of_infraction":"1135","location1":"NR","location2":"1560 QUEEN ST W","location3":"","location4":"","province":"ON","Latitude":"43.6401121","Longitude":"-79.4403471"},
{"tag_number_masked":"***16362","field2":"43461","Day of Week":"Thursday","infraction_code":"207","infraction_description":"PARK MACHINE-REQD FEE NOT PAID","Payment Related?":"FTP","set_fine_amount":"30","time_of_infraction":"1136","location1":"NR","location2":"111 QUEEN ST E","location3":"","location4":"","province":"ON","Latitude":"43.6533063","Longitude":"-79.3741304"},
{"tag_number_masked":"***12243","field2":"43461","Day of Week":"Thursday","infraction_code":"2","infraction_description":"PARK - LONGER THAN 3 HOURS","Payment Related?":"FTP","set_fine_amount":"15","time_of_infraction":"1137","location1":"NR","location2":"113 HASLAM ST","location3":"","location4":"","province":"ON","Latitude":"43.7071457","Longitude":"-79.2589018"},
{"tag_number_masked":"***60559","field2":"43461","Day of Week":"Thursday","infraction_code":"207","infraction_description":"PARK MACHINE-REQD FEE NOT PAID","Payment Related?":"FTP","set_fine_amount":"30","time_of_infraction":"1138","location1":"NR","location2":"1566 QUEEN ST W","location3":"","location4":"","province":"ON","Latitude":"43.6400249","Longitude":"-79.44047"},
{"tag_number_masked":"***27192","field2":"43461","Day of Week":"Thursday","infraction_code":"207","infraction_description":"PARK MACHINE-REQD FEE NOT PAID","Payment Related?":"FTP","set_fine_amount":"30","time_of_infraction":"1143","location1":"OPP","location2":"185 BAYVIEW AVE","location3":"","location4":"","province":"ON","Latitude":"38.1188458","Longitude":"-122.2370936"},
{"tag_number_masked":"***57255","field2":"43461","Day of Week":"Thursday","infraction_code":"207","infraction_description":"PARK MACHINE-REQD FEE NOT PAID","Payment Related?":"FTP","set_fine_amount":"30","time_of_infraction":"1143","location1":"NR","location2":"334 SPADINA AVE","location3":"","location4":"","province":"ON","Latitude":"43.6538894","Longitude":"-79.3988777"},
{"tag_number_masked":"***65270","field2":"43461","Day of Week":"Thursday","infraction_code":"207","infraction_description":"PARK MACHINE-REQD FEE NOT PAID","Payment Related?":"FTP","set_fine_amount":"30","time_of_infraction":"1143","location1":"OPP","location2":"548 DUNDAS ST W","location3":"","location4":"","province":"ON","Latitude":"43.6527413","Longitude":"-79.3994395"},
{"tag_number_masked":"***60560","field2":"43461","Day of Week":"Thursday","infraction_code":"207","infraction_description":"PARK MACHINE-REQD FEE NOT PAID","Payment Related?":"FTP","set_fine_amount":"30","time_of_infraction":"1144","location1":"NR","location2":"1694 QUEEN ST W","location3":"","location4":"","province":"ON","Latitude":"43.6391902","Longitude":"-79.4447869"},
{"tag_number_masked":"***51105","field2":"43461","Day of Week":"Thursday","infraction_code":"207","infraction_description":"PARK MACHINE-REQD FEE NOT PAID","Payment Related?":"FTP","set_fine_amount":"30","time_of_infraction":"1144","location1":"NR","location2":"500 UNIVERSITY AVE","location3":"","location4":"","province":"ON","Latitude":"38.5682857","Longitude":"-121.4178693"},
{"tag_number_masked":"***58858","field2":"43461","Day of Week":"Thursday","infraction_code":"207","infraction_description":"PARK MACHINE-REQD FEE NOT PAID","Payment Related?":"FTP","set_fine_amount":"30","time_of_infraction":"1145","location1":"NR","location2":"415 COLLEGE ST","location3":"","location4":"","province":"ON","Latitude":"36.3168588","Longitude":"-78.5932744"},
{"tag_number_masked":"***28961","field2":"43461","Day of Week":"Thursday","infraction_code":"207","infraction_description":"PARK MACHINE-REQD FEE NOT PAID","Payment Related?":"FTP","set_fine_amount":"30","time_of_infraction":"1145","location1":"NR","location2":"1670 BAYVIEW AVE","location3":"","location4":"","province":"ON","Latitude":"43.7075122","Longitude":"-79.3760493"},
{"tag_number_masked":"***42183","field2":"43461","Day of Week":"Thursday","infraction_code":"207","infraction_description":"PARK MACHINE-REQD FEE NOT PAID","Payment Related?":"FTP","set_fine_amount":"30","time_of_infraction":"1145","location1":"NR","location2":"110 GEORGE ST S","location3":"","location4":"","province":"ON","Latitude":"43.6490117","Longitude":"-79.3702352"},
{"tag_number_masked":"***27193","field2":"43461","Day of Week":"Thursday","infraction_code":"207","infraction_description":"PARK MACHINE-REQD FEE NOT PAID","Payment Related?":"FTP","set_fine_amount":"30","time_of_infraction":"1146","location1":"OPP","location2":"185 BAYVIEW AVE","location3":"","location4":"","province":"ON","Latitude":"38.1188458","Longitude":"-122.2370936"},
{"tag_number_masked":"***58859","field2":"43461","Day of Week":"Thursday","infraction_code":"207","infraction_description":"PARK MACHINE-REQD FEE NOT PAID","Payment Related?":"FTP","set_fine_amount":"30","time_of_infraction":"1147","location1":"NR","location2":"419 COLLEGE ST","location3":"","location4":"","province":"ON","Latitude":"36.3170242","Longitude":"-78.593474"},
{"tag_number_masked":"***28962","field2":"43461","Day of Week":"Thursday","infraction_code":"207","infraction_description":"PARK MACHINE-REQD FEE NOT PAID","Payment Related?":"FTP","set_fine_amount":"30","time_of_infraction":"1147","location1":"NR","location2":"1670 BAYVIEW AVE","location3":"","location4":"","province":"ON","Latitude":"43.7075122","Longitude":"-79.3760493"},
{"tag_number_masked":"***12244","field2":"43461","Day of Week":"Thursday","infraction_code":"2","infraction_description":"PARK - LONGER THAN 3 HOURS","Payment Related?":"FTP","set_fine_amount":"15","time_of_infraction":"1149","location1":"OPP","location2":"51 BONNY LYNN CRT","location3":"","location4":"","province":"ON","Latitude":"40.7677968","Longitude":"-73.6756273"},
{"tag_number_masked":"***57256","field2":"43461","Day of Week":"Thursday","infraction_code":"207","infraction_description":"PARK MACHINE-REQD FEE NOT PAID","Payment Related?":"FTP","set_fine_amount":"30","time_of_infraction":"1150","location1":"NR","location2":"384 SPADINA AVE","location3":"","location4":"","province":"ON","Latitude":"43.6553762","Longitude":"-79.3992933"},
{"tag_number_masked":"***65271","field2":"43461","Day of Week":"Thursday","infraction_code":"207","infraction_description":"PARK MACHINE-REQD FEE NOT PAID","Payment Related?":"FTP","set_fine_amount":"30","time_of_infraction":"1151","location1":"NR","location2":"152 AUGUSTA AVE","location3":"","location4":"","province":"ON","Latitude":"43.6527883","Longitude":"-79.4015204"},
{"tag_number_masked":"***58860","field2":"43461","Day of Week":"Thursday","infraction_code":"207","infraction_description":"PARK MACHINE-REQD FEE NOT PAID","Payment Related?":"FTP","set_fine_amount":"30","time_of_infraction":"1154","location1":"NR","location2":"79 LIPPINCOTT ST","location3":"","location4":"","province":"ON","Latitude":"43.6569297","Longitude":"-79.4063094"},